AirportId,CountryId,StateId,CityId,Code,Name,TimeZone,Latitude,Longitude
1,59,NULL,9249,AAL,Aalborg Airport,+01:00,57.0928,9.84917
3,59,NULL,9254,AAR,Aarhus Tirstrup Airport,+01:00,56.3,10.6189
4,231,44,9271,ABI,Abilene Municipal Airport,-06:00,32.4114,-99.6819
5,231,11,9287,ABY,Albany Dougherty County Airport,-05:00,31.5356,-84.1944
6,231,44,9305,ACT,Waco Municipal Airport,-06:00,31.6114,-97.2306
7,231,32,9419,ACY,Atlantic City International Airport,-05:00,39.4575,-74.5772
8,223,NULL,12473,ADB,Izmir Adnan Menderes Airport,+02:00,38.2925,27.1569
9,112,NULL,9493,ADJ,Amman Civil-Marka Airport,+03:00,31.9728,35.9917
10,14,54,9319,ADL,Adelaide Airport,+09:30,-34.945,138.531
12,231,1,9324,ADQ,Kodiak Airport,-09:00,57.75,-152.494
13,231,44,10938,ADS,Dallas/Fort Worth Addison Airport,-06:00,32.9694,-96.8389
15,11,60,10217,AEP,Buenos Aires Aeroparque J. Newbery Airport,-03:00,-34.5589,-58.4164
16,231,19,9346,AEX,Alexandria International Airport,-06:00,31.3275,-92.5497
18,231,44,10938,AFW,Dallas/Fort Worth Alliance Airport,-06:00,32.9833,-97.3167
19,81,NULL,14079,AGB,Munich Augsburg Airport,+01:00,48.4253,10.9317
20,231,39,14979,AGC,Pittsburgh Allegheny County Airport,-05:00,40.35,-79.9333
21,210,NULL,9365,AGH,Angelholm/Helsingborg Angelholm Airport,+01:00,56.2961,12.8472
22,231,11,9376,AGS,Augusta Bush Field Airport,-05:00,33.37,-81.9644
27,158,NULL,9443,AKL,Auckland International Airport,+12:00,-37.0097,174.792
28,231,35,9458,ALB,Albany International Airport,-05:00,42.7483,-73.8017
29,231,33,9469,ALM,Alamogordo Municipal Airport,-07:00,32.84,-105.991
30,64,NULL,9481,ALY,Alexandria El Nozha Airport,+02:00,31.1839,29.9489
31,231,44,9482,AMA,Amarillo International Airport,-06:00,35.2194,-101.706
33,112,NULL,9493,AMM,Amman Queen Alia International Airport,+03:00,31.7225,35.9933
35,231,1,9509,ANC,Anchorage International Airport,-09:00,61.1744,-149.996
37,223,NULL,9517,ANK,Ankara Etimesgut Airport,+02:00,39.9528,32.6861
38,22,NULL,10156,ANR,Antwerp-Brussels North Airport,+02:00,51.1894,4.46028
39,231,6,10930,APA,Denver Arapahoe County Airport,-07:00,39.5667,-104.833
40,189,NULL,9567,APW,Apia Faleolo Airport,+13:00,-13.8297,-171.997
42,210,NULL,16098,ARN,Stockholm Arlanda Airport,+01:00,59.6519,17.9186
43,14,59,9619,ASP,Alice Springs Airport,+09:30,-23.8067,133.902
44,84,NULL,9636,ATH,Athens Airport,+03:00,37.9364,23.9444
45,231,11,9640,ATL,Atlanta Hartsfield-Jackson Intl Airport,-05:00,33.6367,-84.4281
46,229,NULL,9662,AUH,Abu Dhabi International Airport,+04:00,24.4331,54.6511
47,231,44,9673,AUS,Austin-Bergstrom International Airport,-06:00,30.1944,-97.67
49,74,NULL,9688,AVN,Avignon Caumont Airport,+01:00,43.9067,4.90194
50,231,39,9690,AVP,Wilkes-Barre Scranton International Airport,-05:00,41.3386,-75.7233
51,14,56,13694,AVV,Melbourne Avalon Airport,+10:00,-38.0394,144.469
59,181,NULL,10220,BBU,Bucharest Baneasa - Aurel Vliacu Airport,+02:00,44.5033,26.1022
60,204,NULL,9809,BCN,Barcelona Airport,+01:00,41.2969,2.07833
61,25,NULL,9822,BDA,Bermuda L.F Wade International Airport,-04:00,32.3642,-64.6786
62,231,7,12007,BDL,Hartford Bradley International Airport,-05:00,41.9389,-72.6833
65,231,1,9864,BET,Bethel Municipal Airport,-09:00,60.7797,-161.838
67,231,48,15717,BFI,Seattle Boeing Field Airport,-08:00,47.53,-122.302
69,231,2,13928,BFM,Mobile Aerospace Airport,-06:00,30.6333,-88.0667
70,230,NULL,9885,BFS,Belfast International Airport,+00:00,54.6575,-6.21583
72,104,NULL,9912,BGW,Baghdad Airport,+03:00,33.2625,44.2344
73,108,NULL,13790,BGY,Milan Bergamo/Orio al Serio Airport,+01:00,45.6689,9.70028
74,230,NULL,9885,BHD,Belfast George Best City Airport,+00:00,54.6181,-5.8725
76,230,NULL,9936,BHX,Birmingham International Airport,+00:00,52.4536,-1.74778
78,17,NULL,9950,BIM,Bimini International Airport,-05:00,25.7,-79.2647
79,223,NULL,10294,BJV,Bodrum Milas Airport,+02:00,37.2506,27.6644
80,182,NULL,13949,BKA,Moscow Bykovo Airport,+04:00,55.6167,38.0667
81,231,36,10586,BKL,Cleveland Burke Lakefront Airport,-05:00,41.5175,-81.6833
82,210,NULL,16098,BMA,Stockholm Bromma Airport,+01:00,59.3544,17.9417
85,74,NULL,10086,BOD,Bordeaux Merignac Airport,+01:00,44.8286,-0.715278
87,231,20,10100,BOS,Boston Logan International Airport,-05:00,42.3644,-71.0053
88,231,44,10120,BPT,Beaumont Jefferson County Airport,-06:00,29.9508,-94.0208
90,231,11,16068,BQK,Brunswick Glynco Jetport Airport,-05:00,31.2589,-81.4664
91,211,NULL,10149,BRN,Berne Belp Airport,+01:00,46.9142,7.49722
92,58,NULL,10152,BRQ,Brno Airport,+02:00,49.1514,16.6944
93,22,NULL,10156,BRU,Brussels Airport,+01:00,50.9014,4.48444
94,231,1,10158,BRW,Barrow Wiley Post/Will Rogers Memorial Airport,-09:00,71.2856,-156.766
95,211,NULL,11153,BSL,Basel Airport,+01:00,47.5833,7.53333
96,231,19,10204,BTR,Baton Rouge Metropolitan Airport,-06:00,30.5331,-91.1497
97,198,NULL,10205,BTS,Bratislava M.R.Stefanik Airport,+02:00,48.1703,17.2128
98,74,NULL,14816,BVA,Paris Beauvais-Tille Airport,+01:00,49.4544,2.11278
99,231,21,10267,BWI,Baltimore Washington International Airport,-05:00,39.1753,-76.6683
102,23,NULL,10326,BZE,Belize City Goldson Intl Airport,-06:00,17.5392,-88.3083
104,231,41,10346,CAE,Columbia Metropolitan Airport,-05:00,33.9389,-81.1194
105,231,36,10352,CAK,Akron/Canton Ohio Regional Airport,-05:00,40.9161,-81.4422
106,149,NULL,10360,CAS,Casablanca Anfa Airport,+00:00,33.5569,-7.66056
111,74,NULL,14816,CDG,Paris Charles de Gaulle Airport,+01:00,49.0097,2.54778
112,231,1,10435,CDV,Cordova Mudhole Smith Airport,-09:00,60.4917,-145.477
117,31,97,15638,CGH,Sao Paulo Congonhas Airport,-03:00,-23.6267,-46.6581
118,102,NULL,12560,CGK,Jakarta Soekarno-Hatta Airport,+07:00,-6.12556,106.656
119,81,NULL,10491,CGN,Cologne/Bonn Airport,+01:00,50.8658,7.14278
121,231,43,10502,CHA,Chattanooga Lovell Field Airport,-05:00,35.0353,-85.2039
123,108,NULL,15519,CIA,Rome Ciampino Airport,+01:00,41.7994,12.5972
125,231,23,16072,CIU,Sault Ste Marie Chippewa County Airport,-05:00,46.2508,-84.4725
126,117,NULL,10562,CJU,Jeju International Airport,+09:00,33.5114,126.493
128,231,5,18015,CLD,Carlsbad Airport,-08:00,33.1283,-117.28
129,231,36,10586,CLE,Cleveland Hopkins International Airport,-05:00,41.4117,-81.8497
132,205,NULL,10606,CMB,Colombo Bandaranaike Airport,+05:30,7.18028,79.8853
133,231,36,10612,CMH,Columbus Port Columbus Intl Airport,-05:00,39.9981,-82.8919
134,149,NULL,10360,CMN,Casablanca Mohammed V Airport,+00:00,33.3675,-7.59
135,31,86,9938,CNF,Belo Horizonte Tancredo Neves Int Airport,-03:00,-19.6339,-43.9689
139,231,6,10671,COS,Colorado Springs Peterson Field Airport,-07:00,38.8058,-104.701
140,59,NULL,10686,CPH,Copenhagen Kastrup Airport,+01:00,55.7333,12.5833
141,231,25,16096,CPS,St Louis Bi-State Parks Airport,-06:00,38.5667,-90.1667
143,231,41,14191,CRE,Myrtle Beach Grand Strand Airport,-05:00,33.8167,-78.7333
145,174,NULL,18362,CRK,Clark International Airport,+08:00,15.1861,120.56
146,22,NULL,10156,CRL,Brussels S. Charleroi Airport,+01:00,50.4592,4.45389
147,231,44,10715,CRP,Corpus Christi International Airport,-06:00,27.7703,-97.5011
148,231,11,10732,CSG,Columbus Metropolitan Airport,-05:00,32.5194,-84.9383
151,110,NULL,15997,CTS,Sapporo Chitose Airport,+09:00,42.7753,141.692
155,231,36,10803,CVG,Cincinnati Northern Kentucky Intl Airport,-05:00,39.0489,-84.6678
156,231,33,10809,CVN,Clovis Municipal Airport,-07:00,34.4167,-103.083
158,231,49,9677,CWA,Wausau Central Wisconsin Airport,-06:00,44.7833,-89.6667
159,31,90,10815,CWB,Curitiba Afonso Pena Airport,-03:00,-25.5286,-49.1758
161,237,NULL,14322,CXR,Nha Trang Cam Ranh Airport,+07:00,11.9981,109.219
162,231,51,10848,CYS,Cheyenne Municipal Airport,-07:00,41.1558,-104.812
163,231,44,10938,DAL,Dallas/Fort Worth Love Field Airport,-06:00,32.8472,-96.8517
164,231,36,10894,DAY,Dayton Intl Airport,-05:00,39.9025,-84.2194
165,231,9,17092,DCA,Washington Ronald Reagan National Airport,-05:00,38.8522,-77.0378
166,61,NULL,11051,DCF,Dominica Cane Field Airport,-04:00,15.3367,-61.3922
167,231,6,10930,DEN,Denver Intl Airport,-07:00,39.8617,-104.673
169,231,44,10938,DFW,Dallas/Fort Worth Intl Airport,-06:00,32.8969,-97.0381
173,231,24,11000,DLH,Duluth International Airport,-06:00,46.8422,-92.1936
175,182,NULL,13949,DME,Moscow Domodedovo Airport,+04:00,55.4089,37.9064
181,61,NULL,11051,DOM,Dominica Melville Hall Airport,-04:00,15.5469,-61.3
182,231,15,10510,DPA,Chicago Du Page County Airport,-06:00,41.9144,-88.2464
183,231,6,11080,DRO,Durango La Plata Airport,-07:00,37.15,-107.75
184,231,44,11083,DRT,Del Rio International Airport,-06:00,29.3667,-100.917
185,14,59,11085,DRW,Darwin Airport,+09:30,-12.4147,130.877
187,231,23,11105,DTW,Detroit Wayne County,-05:00,42.2125,-83.3533
189,202,NULL,11118,DUR,Durban International Airport,+02:00,-29.97,30.9506
190,81,NULL,11119,DUS,Duesseldorf International Airport,+01:00,51.2894,6.76667
197,59,NULL,11162,EBJ,Esbjerg Airport,+01:00,55.5258,8.55333
201,231,6,11200,EGE,Vail/Eagle County Airport,-07:00,39.6425,-106.918
204,155,NULL,11216,EIN,Eindhoven Airport,+01:00,51.45,5.37444
205,231,44,11246,ELP,El Paso International Airport,-07:00,31.8072,-106.378
206,230,NULL,14425,EMA,Nottingham East Midlands Airport,+00:00,52.8311,-1.32806
209,48,NULL,13664,EOH,Medellin Enrique Olaya Herrerra Airport,-05:00,6.22,-75.5906
210,152,NULL,17118,ERS,Windhoek Eros Airport,+01:00,-22.6122,17.0806
211,223,NULL,9517,ESB,Ankara Esenboga Airport,+02:00,40.1281,32.995
213,231,32,14506,EWR,Newark Liberty International Airport,-05:00,40.6925,-74.1686
214,231,10,11381,EYW,Key West International Airport,-05:00,24.5561,-81.7594
215,11,60,10217,EZE,Buenos Aires Ministro Pistarini Airport,-03:00,-34.8222,-58.5358
216,231,1,11390,FAI,Fairbanks International Airport,-09:00,64.815,-147.856
217,231,5,11400,FAT,Fresno Yosemite International Airport,-08:00,36.7761,-119.718
218,231,28,11402,FAY,Fayetteville Municipal Airport,-05:00,34.9911,-78.8803
222,108,NULL,15519,FCO,Rome Fiumicino Airport,+01:00,41.8003,12.2389
227,189,NULL,9567,FGI,Apia Fagali'i Airport,+13:00,-13.8333,-171.733
228,51,NULL,11451,FIH,Kinshasa N'Djili Airport,+01:00,-4.38583,15.4444
229,81,NULL,11458,FKB,Karlsruhe/Baden-Baden Baden Airpark Airport,+01:00,48.7794,8.08056
230,231,39,11462,FKL,Franklin Chess Lamberton Airport,-05:00,41.3861,-79.8667
232,231,4,11645,FLG,Grand Canyon Pulliam Field Airport,-07:00,35.1383,-111.671
233,231,10,13781,FLL,Fort Lauderdale/Hollywood Intl Airport,-05:00,26.0725,-80.1528
234,108,NULL,11479,FLR,Florence Airport,+02:00,43.8086,11.2028
237,231,10,11494,FMY,Fort Myers Page Field Airport,-05:00,26.5833,-81.8667
238,196,NULL,11495,FNA,Freetown Lungi International Airport,+00:00,8.61639,-13.1956
239,231,6,11504,FNL,Fort Collins/Loveland Municipal Airport,-07:00,40.4517,-105.012
241,81,NULL,11526,FRA,Frankfurt International Airport,+01:00,50.0331,8.57056
244,231,11,9640,FTY,Atlanta Fulton County Airport,-05:00,33.75,-84.3833
245,231,16,11579,FWA,Fort Wayne Baer Field Airport,-05:00,40.9786,-85.1953
247,231,10,11474,FXE,Fort Lauderdale Executive Airport,-05:00,26.1833,-80.1667
249,56,NULL,11605,GAO,Guantanamo Los Canos Airport,-05:00,20.0853,-75.1583
252,231,4,11645,GCN,Grand Canyon National Park Airport,-07:00,35.9525,-112.147
254,157,NULL,14411,GEA,Noumea Magenta Airport,+11:00,-22.2583,166.473
255,231,48,11671,GEG,Spokane International Airport,-08:00,47.62,-117.534
257,31,91,15449,GIG,Rio de Janeiro International Airport,-03:00,-22.8089,-43.2436
258,230,NULL,11741,GLA,Glasgow International Airport,+00:00,55.8719,-4.43333
259,117,NULL,15727,GMP,Seoul Gimpo International Airport,+09:00,37.5583,126.791
261,74,NULL,13578,GNB,Grenoble-Isere Airport,+01:00,45.3631,5.33278
263,210,NULL,11807,GOT,Goteborg Landvetter Airport,+01:00,57.6628,12.2797
265,231,44,12311,GRK,Killeen Gray AAF Airport,-06:00,31.0672,-97.8289
266,31,97,15638,GRU,Sao Paulo Guarulhos Intl Airport,-03:00,-23.4319,-46.4694
267,210,NULL,11807,GSE,Goteborg City Airport,+01:00,57.7747,11.8703
268,231,41,11855,GSP,Greenville/Spartanburg Airport,-05:00,34.8956,-82.2189
269,231,1,11859,GST,Gustavus Airport,-09:00,58.4253,-135.708
270,231,27,11866,GTF,Great Falls International Airport,-07:00,47.4819,-111.371
272,231,26,16733,GTR,Columbus Golden Triangle Regional Airport,-06:00,33.4667,-88.3833
273,88,NULL,11886,GUM,Guam Antonio B Won Pat International Airport,+10:00,13.4833,144.796
278,16,NULL,9755,GYD,Baku Heydar Aliyev International Airport,+04:00,40.4675,50.0467
280,49,NULL,17796,HAH,Moroni International Prince Said Airport,+03:00,-11.5336,43.2719
281,81,NULL,11946,HAJ,Hannover Airport,+01:00,52.4611,9.685
282,81,NULL,11949,HAM,Hamburg Airport,+01:00,53.6303,9.98833
286,64,NULL,9481,HBE,Alexandria Borg el Arab Airport,+02:00,30.9178,29.6964
289,231,6,15665,HDN,Steamboat Springs Hayden Yampa Valley Airport,-07:00,40.5194,-106.869
293,231,7,12007,HFD,Hartford Brainard Airport,-05:00,41.7367,-72.65
295,81,NULL,11526,HHN,Frankfurt Hahn Airport,+01:00,49.9486,7.26389
299,110,NULL,12036,HIJ,Hiroshima International Airport,+09:00,34.4361,132.919
303,98,NULL,12050,HKG,Hong Kong International Airport,+08:00,22.3089,113.915
308,110,NULL,16706,HND,Tokyo Haneda Airport,+09:00,35.5522,139.78
309,231,12,12092,HNL,Honolulu International Airport,-10:00,21.3222,-157.924
310,231,33,12100,HOB,Hobbs Lea County Airport,-07:00,32.6833,-103.217
311,231,44,12118,HOU,Houston Hobby Airport,-06:00,29.6456,-95.2789
315,231,2,12159,HSV,Huntsville International Airport,-06:00,34.6372,-86.775
319,231,9,17092,IAD,Washington Dulles International Airport,-05:00,38.9444,-77.4558
320,231,44,12118,IAH,Houston George Bush Intercontinental Ap Airport,-06:00,29.9844,-95.3414
321,117,NULL,15727,ICN,Seoul Incheon International Airport,+09:00,37.4692,126.451
322,231,17,12252,ICT,Wichita Mid-Continent Airport,-06:00,37.6528,-97.4331
323,228,NULL,12269,IEV,Kiev Zhulyany Airport,+02:00,50.4017,30.4497
325,103,NULL,16401,IKA,Tehran Imam Khomeini International Airport,+03:30,35.4161,51.1522
329,231,5,12381,IPL,Imperial County Airport,-08:00,32.8361,-115.567
330,230,NULL,12405,ISC,Isles of Scilly St Mary's Airport,+00:00,49.9133,-6.29167
331,223,NULL,12420,IST,Istanbul Ataturk Airport,+02:00,40.9769,28.8147
332,110,NULL,14713,ITM,Osaka Itami Airport,+09:00,34.7856,135.438
336,231,26,12487,JAN,Jackson-Evers International Airport,-06:00,32.3111,-90.0758
338,231,10,12495,JAX,Jacksonville International Airport,-05:00,30.4942,-81.6878
354,231,35,14506,JFK,New York J F Kennedy International Airport,-05:00,40.6397,-73.7789
355,231,4,11645,JGC,Grand Canyon H/P Airport,-07:00,35.975,-112.14
369,202,NULL,12578,JNB,Johannesburg O.R. Tambo International Airport,+02:00,-26.1392,28.2461
376,231,35,14506,JRB,New York Downtown Manhattan H/P Airport,-05:00,40.7,-74
391,228,NULL,12269,KBP,Kiev Borispol Airport,+02:00,50.345,30.8947
393,231,1,12704,KCG,Chignik Fisheries Airport,-09:00,56.3,-158.4
394,231,1,12704,KCL,Chignik Lagoon Airport,-09:00,56.3,-158.533
395,231,1,12704,KCQ,Chignik Lake Airport,-09:00,56.2603,-158.774
397,100,NULL,15400,KEF,Reykjavik Keflavik International Airport,+00:00,63.985,-22.6056
398,109,NULL,12824,KIN,Kingston Norman Manley Intl Airport,-05:00,17.9356,-76.7875
400,110,NULL,14713,KIX,Osaka Kansai International Airport,+09:00,34.4272,135.244
401,165,NULL,12999,KRS,Kristiansand Kjevik Airport,+01:00,58.2042,8.08528
402,231,1,13045,KTN,Ketchikan International Airport,-09:00,55.3556,-131.714
404,133,NULL,13067,KUL,Kuala Lumpur International Airport,+08:00,2.74556,101.715
406,231,34,13163,LAS,Las Vegas McCarran International Airport,-08:00,36.08,-115.152
407,231,5,13168,LAX,Los Angeles International Airport,-08:00,33.9425,-118.408
408,231,44,13172,LBB,Lubbock Preston Smith International Airport,-06:00,33.6636,-101.823
409,81,NULL,11949,LBC,Hamburg Luebeck-Blankensee Airport,+01:00,53.8053,10.7192
411,231,36,10612,LCK,Columbus Rickenbacker Airport,-05:00,39.8139,-82.9278
412,230,NULL,13414,LCY,London City Airport,+00:00,51.505,0.0541667
413,182,NULL,13234,LED,St Petersburg Pulkovo Airport,+04:00,59.8003,30.2625
414,231,18,13254,LEX,Lexington Blue Grass Airport,-05:00,38.0364,-84.6058
416,231,19,13264,LFT,Lafayette Regional Airport,-06:00,30.2053,-91.9875
417,231,35,14506,LGA,New York La Guardia Airport,-05:00,40.7772,-73.8725
418,231,5,13266,LGB,Long Beach Airport,-08:00,33.8178,-118.152
420,22,NULL,13270,LGG,Liege Airport,+01:00,50.6375,5.44333
421,230,NULL,13414,LGW,London Gatwick Airport,+00:00,51.1481,-0.190278
422,230,NULL,13414,LHR,London Heathrow Airport,+00:00,51.4775,-0.461389
423,45,NULL,13298,LHW,Lanzhou Airport,+08:00,36.5167,103.617
424,231,12,13306,LIH,Kauai Island Lihue Municipal Airport,-10:00,21.9761,-159.339
425,74,NULL,13310,LIL,Lille Lesquin Airport,+01:00,50.5633,3.08694
426,108,NULL,13790,LIN,Milan Linate Airport,+01:00,45.4494,9.27833
437,230,NULL,15716,LSI,Shetland Islands Sumburgh Airport,+00:00,59.8789,-1.29556
439,230,NULL,13414,LTN,London Luton Airport,+00:00,51.8747,-0.368333
441,231,4,14962,LUF,Phoenix Luke AFB Airport,-07:00,33.4333,-112.017
442,231,36,10803,LUK,Cincinnati Municipal Airport,-05:00,39.1,-84.4167
446,74,NULL,13578,LYS,Lyon St-Exupery Airport,+01:00,45.7256,5.08111
449,204,NULL,13592,MAD,Madrid Barajas Airport,+01:00,40.4936,-3.56667
450,231,44,13594,MAF,Midland Odessa Regional Airport,-06:00,31.9425,-102.202
451,230,NULL,13602,MAN,Manchester International Airport,+01:00,53.3536,-2.275
453,231,5,13643,MCE,Merced Macready Regional Airport,-08:00,37.2833,-120.517
455,231,25,13831,MCI,Kansas City International Airport,-06:00,39.2975,-94.7139
456,231,11,13650,MCN,Macon Lewis B Wilson Airport,-05:00,32.6928,-83.6492
457,231,10,14699,MCO,Orlando International Airport,-05:00,28.4294,-81.3089
460,48,NULL,13664,MDE,Medellin Jose Maria Cordova Intl Airport,-05:00,6.16444,-75.4231
461,231,39,11953,MDT,Harrisburg International Airport,-05:00,40.1936,-76.7633
462,231,15,10510,MDW,Chicago Midway Airport,-06:00,41.7861,-87.7525
464,14,56,13694,MEL,Melbourne Airport,+10:00,-37.6733,144.843
465,231,43,13695,MEM,Memphis International Airport,-06:00,35.0425,-89.9767
467,142,NULL,13705,MEX,Mexico City Juarez International Airport,-06:00,19.4364,-99.0722
470,231,2,13745,MGM,Montgomery Dannelly Field Airport,-06:00,32.3006,-86.3939
473,21,NULL,14043,MHP,Minsk International Airport 1,+03:00,53.8644,27.5397
474,231,5,15626,MHR,Sacramento Mather AFB Airport,-08:00,38.5667,-121.3
476,231,10,13781,MIA,Miami International Airport,-05:00,25.7933,-80.2906
480,231,25,13831,MKC,Kansas City Downtown Airport,-06:00,39.1167,-94.5833
481,231,49,13833,MKE,Milwaukee General Mitchell Intl Airport,-06:00,42.9472,-87.8967
485,74,NULL,11153,MLH,Mulhouse Airport,+01:00,47.59,7.52917
486,124,NULL,13875,MLW,Monrovia Sprigg-Payne Airport,+00:00,6.28917,-10.7586
489,210,NULL,13879,MMX,Malmo Airport,+01:00,55.5303,13.3717
490,174,NULL,13912,MNL,Manila Ninoy Aquino International Airport,+08:00,14.5086,121.019
491,231,2,13928,MOB,Mobile Municipal Airport,-06:00,30.6911,-88.2428
493,231,29,13946,MOT,Minot International Airport,-06:00,48.2594,-101.28
494,74,NULL,13963,MPL,Montpellier Mediterranee Airport,+01:00,43.5833,3.96139
497,74,NULL,14020,MRS,Marseille Provence Airport,+01:00,43.4367,5.215
498,231,5,14026,MRY,Monterey Peninsula Airport,-08:00,36.5869,-121.843
500,231,24,14042,MSP,Minneapolis International Airport,-06:00,44.8819,-93.2217
501,21,NULL,14043,MSQ,Minsk International Airport 2,+03:00,53.8825,28.0308
502,155,NULL,14046,MST,Maastricht/Aachen DE Airport,+02:00,50.9158,5.77694
503,231,19,14051,MSY,New Orleans Louis Armstrong Intl Airport,-06:00,29.9933,-90.2581
507,142,NULL,14075,MTY,Monterrey General Mariano Escobedo Airport,-06:00,25.7786,-100.107
508,81,NULL,14079,MUC,Munich International Airport,+01:00,48.3539,11.7861
512,231,48,14133,MWH,Moses Lake Grant County Airport,-08:00,47.2083,-119.32
515,108,NULL,13790,MXP,Milan Malpensa Airport,+01:00,45.63,8.72306
517,231,41,14191,MYR,Myrtle Beach AFB Airport,-05:00,33.6797,-78.9283
520,108,NULL,14240,NAP,Naples Capodichino Airport,+01:00,40.8844,14.2908
521,17,NULL,14243,NAS,Nassau International Airport,-05:00,25.0389,-77.4661
522,45,NULL,9981,NAY,Beijing Nanyuan Airport,+08:00,39.8861,116.286
524,114,NULL,14255,NBO,Nairobi Jomo Kenyatta International Airport,+03:00,-1.31917,36.9278
525,56,NULL,11605,NBW,Guantanamo NAS Airport,-05:00,19.9833,-75.1667
534,110,NULL,14316,NGO,Nagoya Chubu Centrair International Airport,+09:00,34.8583,136.805
538,237,NULL,14322,NHA,Nha Trang Airport,+07:00,12.2275,109.192
541,110,NULL,14316,NKM,Nagoya Komaki Airport,+09:00,35.255,136.924
543,51,NULL,11451,NLO,Kinshasa N'Dolo Airport,+01:00,-4.31667,15.3167
545,157,NULL,14411,NOU,Noumea Tontouta Airport,+11:00,-22.0144,166.213
550,81,NULL,11119,NRN,Duesseldorf Weeze Airport,+01:00,51.6025,6.14222
551,110,NULL,16706,NRT,Tokyo Narita Airport,+09:00,35.7647,140.386
554,38,NULL,17420,NSI,Yaounde Nsimalen Airport,+01:00,3.7225,11.5533
555,74,NULL,14457,NTE,Nantes Atlantique Airport,+01:00,47.1569,-1.60778
556,14,52,14461,NTL,Newcastle Williamtown Airport,+10:00,-32.795,151.834
558,81,NULL,14474,NUE,Nuremberg Airport,+02:00,49.4986,11.0669
561,210,NULL,16098,NYO,Stockholm Skavsta Airport,+01:00,58.7886,16.9122
564,231,5,14520,OAK,Oakland International Airport,-08:00,37.7214,-122.221
566,230,NULL,14534,OBN,Oban Connel Airport,+01:00,56.4667,-5.4
573,110,NULL,14599,OKA,Okinawa Naha Airport,+09:00,26.1958,127.646
574,231,37,14601,OKC,Oklahoma City Will Rogers Airport,-06:00,35.3931,-97.6008
575,110,NULL,15997,OKD,Sapporo Okadama Airport,+09:00,43.1161,141.38
577,231,30,14638,OMA,Omaha Eppley Airfield Airport,-06:00,41.3031,-95.8942
578,231,5,14672,ONT,Ontario LA/Ontario International Airport,-08:00,34.0561,-117.601
579,231,10,13781,OPF,Miami Opa Locka Airport,-05:00,25.8028,-80.2833
580,231,15,10510,ORD,Chicago O'Hare International Airport,-06:00,41.9786,-87.9047
581,231,46,14694,ORF,Norfolk International Airport,-05:00,36.8947,-76.2011
583,231,10,14699,ORL,Orlando Herndon Airport,-05:00,28.5333,-81.35
584,4,NULL,14701,ORN,Oran Es Senia Airport,+01:00,35.6239,-0.621111
585,74,NULL,14816,ORY,Paris Orly Airport,+01:00,48.7233,2.37944
586,165,NULL,14722,OSL,Oslo Gardermoen Airport,+01:00,60.1939,11.1003
588,181,NULL,10220,OTP,Bucharest Henri Coanda Airport,+02:00,44.5722,26.1022
590,170,NULL,15213,PAC,Panama City Paitilla Airport,-05:00,8.97333,-79.5556
593,231,35,18107,PBG,Plattsburgh Airport,-04:00,44.5025,-73.4689
594,231,10,14831,PBI,West Palm Beach International Airport,-05:00,26.6831,-80.0956
595,207,NULL,14835,PBM,Paramaribo Johan A Pengel Airport,-03:00,5.45278,-55.1878
597,45,NULL,9981,PEK,Beijing Capital Airport,+08:00,40.08,116.584
598,231,10,14917,PFN,Panama City Bay County Airport,-06:00,30.2289,-85.6828
599,231,39,14952,PHL,Philadelphia International Airport,-05:00,39.8719,-75.2411
600,231,4,14962,PHX,Phoenix Sky Harbor Intl Airport,-07:00,33.4342,-112.012
601,231,26,13519,PIB,Laurel Hattiesburg-Laurel Regional Airport,-06:00,31.4672,-89.3369
603,231,10,16563,PIE,Tampa St Petersbrg-Clearwater Intl Airport,-05:00,27.9103,-82.6875
605,230,NULL,11741,PIK,Glasgow Prestwick Airport,+00:00,55.5094,-4.58667
606,231,1,14975,PIP,Pilot Point Airport,-09:00,57.5803,-157.572
607,74,NULL,14978,PIS,Poitiers Biard Airport,+01:00,46.5875,0.306667
608,231,39,14979,PIT,Pittsburgh International Airport,-05:00,40.4914,-80.2328
610,31,86,9938,PLU,Belo Horizonte Pampulha Airport,-03:00,-19.8511,-43.9506
611,108,NULL,13790,PMF,Milan Parma Airport,+01:00,44.8222,10.2953
612,231,39,14952,PNE,Philadelphia North Philadelphia Airport,-05:00,40.0833,-75.0167
613,231,10,15080,PNS,Pensacola Municipal Airport,-06:00,30.4733,-87.1867
618,108,NULL,18110,PSA,Pisa Airport,+02:00,43.6828,10.3956
620,231,5,15179,PSP,Palm Springs Municipal Airport,-08:00,33.8297,-116.507
622,170,NULL,15213,PTY,Panama City Tocumen International Airport,-05:00,9.07139,-79.3833
623,45,NULL,15789,PVG,Shanghai Pudong International Airport,+08:00,31.1433,121.805
625,231,15,10510,PWK,Chicago Palwaukee Airport,-06:00,42,-87.9667
629,231,42,15331,RAP,Rapid City Regional Airport,-07:00,44.0453,-103.058
633,231,15,10510,RFD,Chicago Rockford Airport,-06:00,42.1953,-89.0972
638,59,NULL,10686,RKE,Copenhagen Roskilde Airport,+01:00,55.6667,12.5833
639,100,NULL,15400,RKV,Reykjavik Airport,+00:00,64.13,-21.9406
641,205,NULL,10606,RML,Colombo Ratmalana Airport,+05:30,6.81667,79.8833
643,74,NULL,15507,RNS,Rennes St Jacques Airport,+01:00,48.0719,-1.73222
644,124,NULL,13875,ROB,Monrovia Roberts International Airport,+00:00,6.23389,-10.3622
646,231,24,15562,RST,Rochester Municipal Airport,-06:00,43.9083,-92.5
647,231,10,11494,RSW,Fort Myers SW Florida International Airport,-05:00,26.5361,-81.7553
648,155,NULL,15573,RTM,Rotterdam Airport,+01:00,51.9569,4.43722
653,231,5,15637,SAN,San Diego International Airport,-08:00,32.7336,-117.19
654,231,44,15643,SAT,San Antonio International Airport,-06:00,29.5336,-98.4697
655,231,11,15645,SAV,Savannah/Hilton Head International Airport,-05:00,32.1275,-81.2022
656,223,NULL,12420,SAW,Istanbul Sabiha Gokcen Airport,+02:00,40.8986,29.3092
657,231,5,15649,SBA,Santa Barbara Municipal Airport,-08:00,34.4261,-119.84
659,231,5,10737,SBP,San Luis Obispo County Airport,-08:00,35.2369,-120.642
663,231,5,15626,SCK,Sacramento Stockton Airport,-08:00,37.8942,-121.238
664,44,NULL,15682,SCL,Santiago Arturo Merino Benitez Airport,-04:00,-33.3931,-70.7858
665,81,NULL,15684,SCN,Saarbruecken Airport,+01:00,49.2144,7
669,231,18,15699,SDF,Louisville International Airport,-05:00,38.1744,-85.7361
671,62,NULL,15709,SDQ,Santo Domingo Las Americas Airport,-04:00,18.4297,-69.6689
672,31,91,15449,SDU,Rio de Janeiro Santos Dumont Airport,-03:00,-22.9106,-43.1631
673,107,NULL,16488,SDV,Tel Aviv Yafo Sde Dov Airport,+02:00,32.1147,34.7822
674,231,48,15717,SEA,Seattle/Tacoma International Airport,-08:00,47.4489,-122.309
678,231,10,14699,SFB,Orlando Sanford International Airport,-05:00,28.7778,-81.2375
680,87,NULL,15745,SFG,St Martin Esperance Airport,-04:00,18.1,-63.0833
681,231,5,15753,SFO,San Francisco International Airport,-08:00,37.6189,-122.392
682,59,NULL,15768,SGD,Sonderborg Airport,+01:00,54.9644,9.79167
685,231,44,12118,SGR,Houston Sugar Land Airport,-06:00,29.6167,-95.6333
686,45,NULL,15789,SHA,Shanghai Hongqiao International Airport,+08:00,31.1978,121.336
687,231,19,15810,SHV,Shreveport Regional Airport,-06:00,32.4467,-93.8256
689,178,NULL,15860,SIG,San Juan Isla Grande Airport,-04:00,18.4569,-66.0981
690,197,NULL,15827,SIN,Singapore Changi Airport,+08:00,1.35917,103.989
691,231,5,15842,SJC,San Jose International Airport,-08:00,37.3625,-121.929
692,53,NULL,15854,SJO,San Jose Juan Santamaria Airport,-06:00,9.99389,-84.2089
693,231,44,15859,SJT,San Angelo Mathis Field Airport,-06:00,31.3578,-100.496
694,178,NULL,15860,SJU,San Juan Luis Munoz Marin Intl Airport,-04:00,18.4394,-66.0019
699,186,NULL,15909,SLU,St Lucia Vigie Airport,-04:00,14.0203,-60.9931
701,231,5,15626,SMF,Sacramento International Airport,-08:00,38.6956,-121.591
702,231,5,15939,SNA,Santa Ana John Wayne Airport,-08:00,33.6756,-117.868
705,231,44,16004,SPS,Wichita Falls Sheppard AFB Airport,-06:00,33.9889,-98.4919
709,27,NULL,16061,SRZ,Santa Cruz El Trompillo Airport,-04:00,-17.8039,-63.1772
716,231,24,16087,STC,St Cloud Municipal Airport,-06:00,45.5467,-94.06
717,231,25,16096,STL,St Louis Lambert Intl Airport,-06:00,38.7486,-90.37
718,230,NULL,13414,STN,London Stansted Airport,+00:00,51.885,0.235
719,231,24,14042,STP,Minneapolis Downtown Airport,-06:00,44.9333,-93.0667
720,81,NULL,16100,STR,Stuttgart Airport,+01:00,48.69,9.22194
721,239,NULL,16102,STT,St Thomas Cyril E King Airport,-04:00,18.3372,-64.9733
722,239,NULL,16106,STX,St Croix Henry E. Rohlsen Airport,-04:00,17.7019,-64.7986
724,231,14,16121,SUN,Sun Valley Friedman Memorial Airport,-07:00,43.5083,-114.286
727,182,NULL,13949,SVO,Moscow Sheremetyevo International Airport,+04:00,55.9728,37.4147
728,108,NULL,13790,SWK,Milan Segrate Airport,+01:00,45.4833,9.31667
731,74,NULL,16181,SXB,Strasbourg International Airport,+02:00,48.5419,7.63444
733,81,NULL,9862,SXF,Berlin Schoenefeld Airport,+01:00,52.3786,13.5206
734,14,52,16206,SYD,Sydney Kingsford Smith Airport,+10:00,-33.9461,151.177
735,53,NULL,15854,SYQ,San Jose Tobias Bolanos Airport,-06:00,9.95,-84.1333
736,133,NULL,13067,SZB,Kuala Lumpur Sultan Abdul Aziz Shah Airport,+08:00,3.13111,101.548
737,223,NULL,16082,SZF,Samsun Carsamba Airport,+03:00,41.2544,36.5672
744,150,NULL,16355,TET,Tete Matunda Airport,+02:00,-16.1047,33.6403
745,204,NULL,16309,TFN,Tenerife Norte Airport,+00:00,28.4828,-16.3417
746,204,NULL,16309,TFS,Tenerife Sur Airport,+00:00,28.0444,-16.5725
749,103,NULL,16401,THR,Tehran Mehrabad International Airport,+03:30,35.6889,51.3147
752,142,NULL,13705,TLC,Mexico City Toluca Airport,-06:00,19.3369,-99.5661
753,74,NULL,16485,TLS,Toulouse Blagnac Airport,+02:00,43.635,1.36778
754,107,NULL,16488,TLV,Tel Aviv Ben Gurion International Airport,+02:00,32.0114,34.8867
758,231,36,16548,TOL,Toledo Express Airport,-05:00,41.5869,-83.8078
760,231,10,16563,TPA,Tampa International Airport,-05:00,27.9756,-82.5333
761,213,NULL,16565,TPE,Taipei Taiwan Taoyuan International Airport,+08:00,25.0778,121.233
764,165,NULL,16587,TRD,Trondheim Vaernes Airport,+01:00,63.4575,10.9242
765,165,NULL,14722,TRF,Oslo Sandefjord-Torp Airport,+01:00,59.1867,10.2586
766,108,NULL,16596,TRN,Turin Caselle Airport,+01:00,45.2025,7.64944
767,213,NULL,16565,TSA,Taipei Sung Shan Airport,+08:00,25.0697,121.552
768,108,NULL,16931,TSF,Venice Treviso/Sant'Angelo Airport,+01:00,45.6508,12.1978
769,230,NULL,12405,TSO,Isles of Scilly Tresco Airport,+00:00,49.9456,-6.33139
770,231,35,14506,TSS,New York East 34th Street H/P Airport,-05:00,40.7444,-73.9708
772,74,NULL,16653,TUF,Tours Val de Loire Airport,+01:00,47.4319,0.723056
774,231,37,16658,TUL,Tulsa International Airport,-06:00,36.1983,-95.8881
775,231,4,16665,TUS,Tucson International Airport,-07:00,32.1161,-110.941
778,81,NULL,9862,TXL,Berlin Tegel Airport,+01:00,52.5597,13.2878
783,231,1,14975,UGB,Pilot Point Ugashik Bay Airport,-09:00,57.4333,-157.75
784,110,NULL,14713,UKB,Osaka Kobe Airport,+09:00,34.6328,135.224
787,186,NULL,15909,UVF,St Lucia Hewanorra Airport,-04:00,13.7333,-60.9525
790,108,NULL,17043,VBS,Verona Brescia/Montichiari Airport,+01:00,45.4289,10.3306
791,108,NULL,16931,VCE,Venice Marco Polo Airport,+01:00,45.5053,12.3519
792,31,97,15638,VCP,Sao Paulo Viracopos Airport,-03:00,-23.0081,-47.1347
795,231,34,13163,VGT,Las Vegas North Air Terminal Airport,-08:00,36.2167,-115.2
797,182,NULL,13949,VKO,Moscow Vnukovo International Airport,+04:00,55.5917,37.2614
798,231,11,16998,VLD,Valdosta Regional Airport,-05:00,30.7825,-83.2767
800,231,10,17033,VPS,Valparaiso Fort Walton Beach Airport,-06:00,30.4867,-86.52
801,56,NULL,17037,VRA,Varadero Juan Gualberto Gomez Airport,-05:00,23.0344,-81.4353
802,108,NULL,17043,VRN,Verona Villafranca Airport,+01:00,45.3964,10.8881
804,210,NULL,16098,VST,Stockholm Vasteras Airport,+01:00,59.5894,16.6336
805,27,NULL,16061,VVI,Santa Cruz Viru Viru International Airport,-04:00,-17.6447,-63.1353
809,231,37,17117,WDG,Enid Woodring Municipal Airport,-06:00,36.3833,-97.7833
810,152,NULL,17118,WDH,Windhoek Hosea Kutako International Airport,+01:00,-22.48,17.4708
815,114,NULL,14255,WIL,Nairobi Wilson Airport,+03:00,-1.32167,36.8147
819,45,NULL,15815,XIY,Xi an Xianyang Airport,+08:00,34.4472,108.752
820,231,3,11589,XNA,Fayetteville Northwest Arkansas Reg Airport,-06:00,36.2817,-94.3067
828,39,100,17442,YBL,Campbell River Municipal Airport,-08:00,49.9508,-125.271
829,39,100,17458,YCD,Nanaimo Cassidy Airport,-08:00,49.0522,-123.87
832,39,99,17502,YEG,Edmonton International Airport,-07:00,53.3097,-113.58
833,39,106,17538,YGK,Kingston Norman Rogers Airport,-05:00,44.2253,-76.5969
834,39,108,17543,YGP,Gaspe Airport,-05:00,48.7753,-64.4786
835,39,106,17781,YHM,Toronto John C Munro Hamilton Airport,-05:00,43.1736,-79.935
836,39,108,17640,YHU,Montreal St Hubert Airport,-05:00,45.8528,-74.45
837,39,104,17569,YHZ,Halifax Stanfield International Airport,-04:00,44.8808,-63.5086
838,231,23,11105,YIP,Detroit Willow Run Airport,-05:00,42.2381,-83.5303
840,231,48,17595,YKM,Yakima Air Terminal Airport,-08:00,46.5681,-120.544
842,39,108,17640,YMX,Montreal Mirabel Intl Airport,-05:00,45.6794,-74.0386
844,39,106,17678,YOW,Ottawa McDonald Cartier Intl Airport,-05:00,45.3225,-75.6692
845,39,100,17696,YPR,Prince Rupert Digby Island Airport,-08:00,54.2861,-130.445
846,39,108,17704,YQB,Quebec International Airport,-05:00,46.7911,-71.3933
847,39,101,17706,YQD,The Pas Airport,-06:00,53.9714,-101.091
848,39,106,17709,YQG,Windsor Airport,-05:00,42.2756,-82.9556
849,39,102,17714,YQM,Greater Moncton International Airport,-04:00,46.1122,-64.6786
851,39,106,17743,YSB,Sudbury Airport,-05:00,46.625,-80.7989
852,39,106,17781,YTZ,Toronto City Centre Airport,-05:00,43.6275,-79.3961
853,39,108,17640,YUL,Montreal Pierre Elliott Trudeau Int Airport,-05:00,45.4706,-73.7408
854,231,4,17792,YUM,Yuma International Airport,-07:00,32.6567,-114.606
855,49,NULL,17796,YVA,Moroni Iconi Airport,+03:00,-11.7,43.2333
856,39,100,17806,YVR,Vancouver International Airport,-08:00,49.1939,-123.184
858,39,101,17812,YWG,Winnipeg J.A. Richardson Intl Airport,-06:00,49.91,-97.24
859,39,100,17851,YWH,Victoria Inner Harbour Airport,-08:00,48.4167,-123.467
861,39,100,17836,YXS,Prince George Airport,-08:00,53.8894,-122.679
862,39,106,17838,YXU,London Municipal Airport,-05:00,43.0356,-81.1539
863,39,100,17851,YYJ,Victoria International Airport,-08:00,48.6469,-123.426
864,39,101,17855,YYQ,Churchill Airport,-06:00,58.7392,-94.065
865,39,106,17781,YYZ,Toronto Lester B Pearson Intl Airport,-05:00,43.6772,-79.6306
866,39,106,17869,YZR,Sarnia Airport,-05:00,42.9994,-82.3089
868,81,NULL,15684,ZQW,Saarbrucken Zweibruecken Airport,+01:00,49.2094,7.40056
869,211,NULL,17954,ZRH,Zurich Airport,+01:00,47.4647,8.54917
872,76,NULL,9239,AAA,Anaa Airport,-10:00,-17.3525,-145.51
873,14,53,9240,AAB,Arrabury Airport,+10:00,-26.75,141
875,4,NULL,9242,AAE,Annaba Airport,+01:00,36.8222,7.80917
883,229,NULL,9251,AAN,Al Ain Airport,+04:00,24.2617,55.6092
885,182,NULL,9253,AAQ,Anapa Airport,+04:00,45.0022,37.3472
887,45,NULL,9256,AAT,Altay Airport,+08:00,47.7569,88.0739
891,31,86,9260,AAX,Araxa Airport,-02:00,-19.5633,-46.9603
892,242,NULL,9261,AAY,Al Ghaydah Airport,+03:00,16.1917,52.175
894,182,NULL,9263,ABA,Abakan Airport,+08:00,53.74,91.385
896,204,NULL,9265,ABC,Albacete Airport,+01:00,38.9486,-1.86361
897,103,NULL,9266,ABD,Abadan Airport,+03:30,30.3711,48.2283
898,231,39,9267,ABE,Allentown/Bethlehem/Easton Airport,-04:00,40.6522,-75.4408
902,54,NULL,9272,ABJ,Abidjan Airport,+00:00,5.26139,-3.92639
903,69,NULL,9273,ABK,Kabri Dar Airport,+03:00,6.73389,44.2553
904,231,1,9274,ABL,Ambler Airport,-08:00,67.1064,-157.857
905,14,53,9275,ABM,Bamaga Airport,+10:00,-10.9508,142.459
909,231,33,9279,ABQ,Albuquerque Airport,-06:00,35.0406,-106.609
910,231,42,9280,ABR,Aberdeen Airport,-06:00,45.4492,-98.4219
911,64,NULL,9281,ABS,Abu Simbel Airport,+02:00,22.3758,31.6117
912,192,NULL,9282,ABT,Al-Baha Airport,+03:00,20.2961,41.6342
914,161,NULL,9284,ABV,Abuja Airport,+01:00,9.00667,7.26306
916,14,52,9286,ABX,Albury Airport,+11:00,-36.0678,146.958
917,230,NULL,9288,ABZ,Aberdeen Airport,+01:00,57.2042,-2.20028
918,142,NULL,9289,ACA,Acapulco Airport,-05:00,16.7569,-99.7539
920,82,NULL,9291,ACC,Accra Airport,+00:00,5.60528,-0.166667
922,204,NULL,9293,ACE,Lanzarote Airport,+01:00,28.9456,-13.6053
923,211,NULL,9294,ACH,Altenrhein Airport,+02:00,47.485,9.56083
924,230,NULL,9295,ACI,Alderney Airport,+01:00,49.7061,-2.21472
925,205,NULL,9296,ACJ,Anuradhapura Airport,+06:00,8.3,80.4267
926,231,20,9297,ACK,Nantucket Airport,-04:00,41.2531,-70.0603
931,103,NULL,9302,ACP,Sahand Airport,+03:30,37.3481,46.1331
932,48,NULL,9303,ACR,Araracuara Airport,-05:00,-0.6,-72.2833
933,182,NULL,9304,ACS,Achinsk Airport,+07:00,56.2667,90.5667
934,170,NULL,9306,ACU,Achutupo Airport,-05:00,8.43333,-77.9667
935,231,5,9307,ACV,Arcata/Eureka Airport,-07:00,40.9781,-124.109
936,45,NULL,9308,ACX,Xingyi Airport,+08:00,25.0856,104.959
937,103,NULL,9309,ACZ,Zabol Airport,+03:30,31.0983,61.5439
938,223,NULL,9310,ADA,Adana Airport,+03:00,36.9822,35.2803
940,69,NULL,9312,ADD,Addis Ababa Airport,+03:00,8.97778,38.7994
941,242,NULL,9313,ADE,Aden Airport,+03:00,12.8294,45.0289
942,223,NULL,9314,ADF,Adiyaman Airport,+03:00,37.7314,38.4689
946,231,1,9318,ADK,Adak Island Airport,-09:00,51.8833,-176.65
949,205,NULL,9351,ADP,Ampara Airport,+06:00,7.33639,81.6253
952,103,NULL,9327,ADU,Ardabil Airport,+03:30,38.3267,48.4242
956,48,NULL,9332,ADZ,San Andres Island Airport,-05:00,12.5836,-81.7111
966,182,NULL,9342,AER,Sochi Airport,+04:00,43.45,39.9567
967,165,NULL,9343,AES,Alesund Airport,+02:00,62.5603,6.11028
968,231,1,9344,AET,Allakaket Airport,-08:00,66.55,-152.65
970,100,NULL,9347,AEY,Akureyri Airport,+00:00,65.6586,-18.0722
971,11,118,9348,AFA,San Rafael Airport,-03:00,-34.5886,-68.4028
974,205,NULL,9351,AFK,Ampara Kondavattavan Tank Airport,+06:00,7.29194,81.6353
975,31,113,9352,AFL,Alta Floresta Airport,-03:00,-9.86611,-56.1061
979,234,NULL,9356,AFS,Zarafshan Airport,+05:00,41.6167,64.2333
980,200,NULL,9357,AFT,Afutara Airport,+11:00,-9.19111,160.949
982,103,NULL,9359,AFZ,Sabzevar Airport,+03:30,36.1686,57.5964
983,149,NULL,9360,AGA,Agadir Airport,+00:00,30.325,-9.41306
986,74,NULL,9363,AGF,Agen Airport,+02:00,44.1747,0.590556
991,171,NULL,9369,AGL,Wanigela Airport,+10:00,-9.33333,149.15
992,85,NULL,9370,AGM,Tasiilaq Airport,-02:00,65.6667,-37.6667
993,231,1,9371,AGN,Angoon Airport,-08:00,57.5036,-134.585
995,204,NULL,9373,AGP,Malaga Airport,+01:00,36.675,-4.49917
997,101,NULL,9375,AGR,Agra Airport,+05:30,27.1558,77.9608
998,172,NULL,9377,AGT,Ciudad del Este Airport,-03:00,-25.4556,-54.8436
999,142,NULL,9378,AGU,Aguascalientes Airport,-06:00,21.7056,-102.318
1002,101,NULL,9381,AGX,Agatti Island Airport,+05:30,10.8236,72.1761
1005,192,NULL,9384,AHB,Abha Airport,+03:00,18.2403,42.6567
1007,76,NULL,9386,AHE,Ahe Airport,-10:00,-14.4281,-146.257
1012,231,11,9391,AHN,Athens Airport,-04:00,33.9486,-83.3264
1013,108,NULL,9392,AHO,Alghero Airport,+02:00,40.6311,8.28861
1014,97,NULL,9393,AHS,Ahuas Airport,-06:00,15.4417,-84.425
1016,149,NULL,9395,AHU,Al Hoceima Airport,+00:00,35.1772,-3.83944
1019,231,30,9398,AIA,Alliance Airport,-06:00,42.0667,-102.8
1031,231,1,9410,AIN,Wainwright Airport,-08:00,70.6133,-159.86
1036,52,NULL,9415,AIT,Aitutaki Airport,-10:00,-18.8317,-159.767
1037,52,NULL,9416,AIU,Atiu Island Airport,-10:00,-19.9667,-158.125
1041,74,NULL,9421,AJA,Ajaccio Airport,+02:00,41.9239,8.8025
1042,192,NULL,9422,AJF,Jouf Airport,+03:00,29.785,40.1
1043,223,NULL,9423,AJI,Agri Airport,+03:00,39.6544,43.0272
1046,101,NULL,9426,AJL,Aizawl Airport,+05:30,23.7467,92.8028
1047,49,NULL,9427,AJN,Anjouan Airport,+03:00,-12.1333,44.4333
1049,210,NULL,9429,AJR,Arvidsjaur Airport,+01:00,65.5903,19.2819
1051,31,96,9431,AJU,Aracaju Airport,-03:00,-10.9839,-37.0703
1052,160,NULL,9432,AJY,Agades Airport,+01:00,16.9667,7.98333
1053,45,NULL,9433,AKA,Ankang Airport,+08:00,32.7078,108.932
1054,231,1,9434,AKB,Atka Airport,-09:00,52.2197,-174.207
1057,125,NULL,9437,AKF,Kufrah Airport,+02:00,24.1786,23.3139
1059,192,NULL,9439,AKH,Al Kharj Airport,+03:00,24.0633,47.5806
1060,231,1,9440,AKI,Akiak Airport,-08:00,60.9,-161.233
1061,110,NULL,9441,AKJ,Asahikawa Airport,+09:00,43.6708,142.447
1062,231,1,9442,AKK,Akhiok Airport,-08:00,56.95,-154.167
1064,231,1,9445,AKN,King Salmon Airport,-08:00,58.6767,-156.649
1066,231,1,9447,AKP,Anaktuvuk Pass Airport,-08:00,68.1336,-151.743
1068,161,NULL,9449,AKR,Akure Airport,+01:00,7.25,5.3
1069,200,NULL,9450,AKS,Auki Airport,+11:00,-8.7025,160.682
1071,45,NULL,9452,AKU,Aksu Airport,+08:00,41.2628,80.2919
1072,39,108,9453,AKV,Akulivik Airport,-04:00,60.8186,-78.1486
1074,113,NULL,9455,AKX,Aktyubinsk Airport,+05:00,50.2458,57.2067
1075,151,NULL,9456,AKY,Sittwe Airport,+06:30,20.1328,92.8725
1076,113,NULL,9457,ALA,Almaty Airport,+06:00,43.3533,77.0422
1077,204,NULL,9459,ALC,Alicante Airport,+01:00,38.2822,-0.558056
1080,165,NULL,9462,ALF,Alta Airport,+02:00,69.9761,23.3717
1081,4,NULL,9463,ALG,Algiers Airport,+01:00,36.6911,3.21528
1082,14,57,9464,ALH,Albany Airport,+08:00,-34.9433,117.809
1086,108,NULL,9468,ALL,Albenga Airport,+01:00,44.0458,8.12556
1088,231,13,9471,ALO,Waterloo Airport,-05:00,42.5569,-92.4003
1089,212,NULL,9472,ALP,Aleppo Airport,+02:00,36.1806,37.2244
1092,231,6,9475,ALS,Alamosa Airport,-06:00,37.4333,-105.867
1096,231,48,9479,ALW,Walla Walla Airport,-07:00,46.095,-118.288
1100,101,NULL,9485,AMD,Ahmedabad Airport,+05:30,23.0772,72.6347
1104,69,NULL,9489,AMH,Arba Mintch Airport,+03:00,6.03944,37.5906
1105,102,NULL,9490,LOP,Mataram (Lombok) Airport,+08:00,-8.56083,116.095
1111,102,NULL,9497,AMQ,Ambon Airport,+09:00,-3.71028,128.089
1113,155,NULL,9499,AMS,Amsterdam Airport,+01:00,52.3081,4.76417
1116,182,NULL,9502,AMV,Amderma Airport,+04:00,69.7667,61.55
1119,131,NULL,9505,AMY,Ambatomainty Airport,+03:00,-17.6833,45.6667
1123,44,NULL,9512,ANF,Antofagasta Airport,-03:00,-23.4444,-70.445
1124,74,NULL,9513,ANG,Angouleme Airport,+01:00,45.7294,0.219167
1126,231,1,9515,ANI,Aniak Airport,-08:00,61.5822,-159.544
1129,131,NULL,9519,ANM,Antalaha Airport,+03:00,-14.9994,50.3203
1134,173,NULL,9525,ANS,Andahuaylas Airport,-05:00,-13.7064,-73.3503
1136,10,NULL,9527,ANU,Antigua Airport,-04:00,17.1367,-61.7928
1137,231,1,9528,ANV,Anvik Airport,-08:00,62.65,-160.217
1139,165,NULL,9530,ANX,Andenes Airport,+01:00,69.2925,16.1442
1144,81,NULL,9535,AOC,Altenburg Airport,+01:00,50.9819,12.5064
1146,223,NULL,9537,AOE,Eskisehir Airport,+03:00,39.8019,30.525
1149,108,NULL,9540,AOI,Ancona Airport,+01:00,43.6167,13.3603
1150,110,NULL,9541,AOJ,Aomori Airport,+09:00,40.7347,140.691
1151,84,NULL,9542,AOK,Karpathos Airport,+03:00,35.4214,27.1461
1154,231,39,9545,AOO,Altoona Airport,-04:00,40.2964,-78.32
1155,133,NULL,9546,AOR,Alor Setar Airport,+08:00,6.19444,100.401
1161,231,10,9552,APF,Naples Airport,-04:00,26.15,-81.7833
1165,76,NULL,9556,APK,Apataki Airport,-10:00,-15.5736,-146.415
1166,150,NULL,9557,APL,Nampula Airport,+02:00,-15.1056,39.2817
1167,231,23,9558,APN,Alpena Airport,-05:00,45.0781,-83.5603
1168,48,NULL,9559,APO,Apartado Airport,-05:00,7.03333,-77.2
1181,45,NULL,9573,AQG,Anqing Airport,+08:00,30.5825,117.05
1182,192,NULL,9574,AQI,Qaisumah Airport,+03:00,28.3167,46.1167
1183,112,NULL,9575,AQJ,Aqaba Airport,+03:00,29.6117,35.0181
1185,173,NULL,9577,AQP,Arequipa Airport,-05:00,-16.3411,-71.5831
1188,231,23,9580,ARB,Ann Arbor Airport,-05:00,42.2333,-83.7333
1189,231,1,9581,ARC,Arctic Village Airport,-08:00,68.1147,-145.579
1190,102,NULL,9582,ARD,Alor Island Airport,+08:00,-8.25,124.75
1194,182,NULL,9586,ARH,Arkhangelsk Airport,+04:00,64.6003,40.7167
1195,44,NULL,9587,ARI,Arica Airport,-03:00,-18.3486,-70.3386
1197,215,NULL,9589,ARK,Arusha Airport,+03:00,-3.36778,36.6333
1199,14,52,9591,ARM,Armidale Airport,+11:00,-30.5281,151.617
1205,231,35,9597,ART,Watertown Airport,-05:00,43.9919,-76.0217
1206,31,97,9598,ARU,Aracatuba Airport,-03:00,-21.1414,-50.4247
1207,231,49,9599,ARV,Minocqua Airport,-06:00,45.9167,-89.7333
1208,181,NULL,9600,ARW,Arad Airport,+03:00,46.1767,21.2619
1212,67,NULL,9604,ASA,Assab Airport,+03:00,13.0717,42.645
1213,224,NULL,9605,ASB,Ashgabat Airport,+05:00,37.9869,58.3608
1215,17,NULL,9607,ASD,Andros Town Airport,-05:00,24.6983,-77.7956
1216,231,6,9608,ASE,Aspen Airport,-07:00,39.2178,-106.867
1217,182,NULL,9609,ASF,Astrakhan Airport,+04:00,46.2833,48.0064
1220,184,NULL,9612,ASI,Georgetown Airport,+00:00,-7.96667,-14.4
1221,110,NULL,9613,ASJ,Amami O Shima Airport,+09:00,28.4306,129.712
1224,67,NULL,9616,ASM,Asmara Airport,+03:00,15.2919,38.9106
1226,69,NULL,9618,ASO,Asosa Airport,+03:00,10.0186,34.5864
1228,223,NULL,9621,ASR,Kayseri Airport,+03:00,38.7703,35.4956
1229,231,38,9622,AST,Astoria Airport,-08:00,46.1667,-123.883
1230,172,NULL,9623,ASU,Asuncion Airport,-03:00,-25.2397,-57.5192
1231,114,NULL,9624,ASV,Amboseli Airport,+03:00,-2.645,37.2528
1232,64,NULL,9625,ASW,Aswan Airport,+02:00,23.9644,32.82
1236,173,NULL,9629,ATA,Anta Airport,-05:00,-13.4833,-72.1333
1238,17,NULL,9631,ATC,Arthur's Town Airport,-05:00,24.6294,-75.6739
1239,200,NULL,9632,ATD,Atoifi Airport,+11:00,-8.87333,161.011
1245,231,1,9639,ATK,Atqasuk Airport,-08:00,70.4672,-157.436
1246,31,115,9641,ATM,Altamira Airport,-03:00,-3.25389,-52.2539
1250,101,NULL,9645,ATQ,Amritsar Airport,+05:30,31.7097,74.7972
1253,231,1,9648,ATT,Atmautluak Airport,-08:00,61,-162.75
1256,231,49,9651,ATW,Appleton Airport,-05:00,44.2667,-88.5167
1258,231,42,9653,ATY,Watertown Airport,-05:00,44.9139,-97.1547
1259,64,NULL,9654,ATZ,Assiut Airport,+02:00,27.0464,31.0119
1260,13,NULL,9655,AUA,Aruba Airport,-04:00,12.5014,-70.0153
1262,48,NULL,9657,AUC,Arauca Airport,-05:00,7.06889,-70.7369
1266,231,22,9661,AUG,Augusta Airport,-04:00,44.3167,-69.8
1269,231,1,9665,AUK,Alakanuk Airport,-08:00,62.6833,-164.633
1275,76,NULL,9671,AUQ,Atuona Airport,-09:30,-9.76889,-139.011
1276,74,NULL,9672,AUR,Aurillac Airport,+02:00,44.8975,2.41667
1278,14,53,9675,AUU,Aurukun Mission Airport,+10:00,-13.3539,141.721
1280,31,98,9678,AUX,Araguaina Airport,-03:00,-7.21667,-48.2333
1281,235,NULL,9679,AUY,Aneityum Airport,+11:00,-20.3333,169.667
1283,45,NULL,9681,AVA,Anshun Airport,+08:00,26.2572,105.873
1284,108,NULL,9682,AVB,Aviano Airport,+01:00,46.0319,12.5964
1289,231,28,9687,AVL,Asheville Airport,-04:00,35.4361,-82.5419
1291,200,NULL,9691,AVU,Avu Avu Airport,+11:00,-9.86667,160.417
1293,171,NULL,9694,AWB,Awaba Airport,+10:00,-8.01667,142.75
1294,235,NULL,9695,AWD,Aniwa Airport,+11:00,-19.2333,169.583
1302,103,NULL,9703,AWZ,Ahwaz Airport,+03:30,31.3375,48.7603
1303,8,NULL,9704,AXA,Anguilla Airport,-04:00,18.2047,-63.055
1306,84,NULL,9707,AXD,Alexandroupolis Airport,+03:00,40.8558,25.9564
1309,242,NULL,9710,AXK,Ataq Airport,+03:00,14.5333,46.8167
1311,48,NULL,9712,AXM,Armenia Airport,-05:00,4.45278,-75.7664
1313,17,NULL,9714,AXP,Spring Point Airport,-04:00,22.4419,-73.9708
1314,76,NULL,9715,AXR,Arutua Airport,-10:00,-15.2483,-146.617
1315,110,NULL,9716,AXT,Akita Airport,+09:00,39.6156,140.219
1316,69,NULL,9717,AXU,Axum Airport,+03:00,14.1467,38.7728
1330,173,NULL,9731,AYP,Ayacucho Airport,-05:00,-13.1547,-74.2044
1331,14,59,9732,AYQ,Ayers Rock Airport,+09:30,-25.1861,130.976
1334,223,NULL,9735,AYT,Antalya Airport,+03:00,36.8986,30.8006
1339,103,NULL,9740,AZD,Yazd Airport,+03:30,31.9061,54.2764
1341,234,NULL,9742,AZN,Andizhan Airport,+05:00,40.7278,72.2939
1342,231,23,9743,AZO,Kalamazoo Airport,-04:00,42.235,-85.5519
1343,4,NULL,9744,AZR,Adrar Airport,+01:00,27.8375,-0.186389
1346,171,NULL,9747,BAA,Bialla Airport,+10:00,-5.31667,151.033
1351,18,NULL,9752,BAH,Bahrain Airport,+03:00,26.2708,50.6336
1354,223,NULL,9756,BAL,Batman Airport,+02:00,37.9289,41.1167
1359,48,NULL,9761,BAQ,Barranquilla Airport,-05:00,10.8897,-74.7808
1361,200,NULL,9763,BAS,Balalae Airport,+11:00,-6.97389,155.886
1363,31,97,9765,BAU,Bauru Airport,-03:00,-22.345,-49.0539
1364,45,NULL,9766,BAV,Baotou Airport,+08:00,40.5606,109.996
1366,182,NULL,9768,BAX,Barnaul Airport,+07:00,53.3639,83.5386
1367,181,NULL,9769,BAY,Baia Mare Airport,+03:00,47.6583,23.47
1368,31,78,9770,BAZ,Barcelos Airport,-04:00,-0.966944,-62.9336
1369,44,NULL,9771,BBA,Balmaceda Airport,-03:00,-45.9161,-71.6894
1370,231,24,9772,BBB,Benson Airport,-06:00,45.3167,-95.6
1377,101,NULL,9779,BBI,Bhubaneswar Airport,+05:30,20.2444,85.8178
1379,29,NULL,9781,BBK,Kasane Airport,+02:00,-17.8328,25.1625
1382,133,NULL,9784,BBN,Bario Airport,+08:00,3.73472,115.478
1383,201,NULL,9785,BBO,Berbera Airport,+03:00,10.3892,44.9411
1385,10,NULL,9787,BBQ,Barbuda Airport,-04:00,17.6,-61.7833
1387,230,NULL,9789,BBS,Blackbushe Airport,+00:00,51.3239,-0.8475
1394,56,NULL,9796,BCA,Baracoa Airport,-04:00,20.3653,-74.5061
1397,174,NULL,9799,BCD,Bacolod Airport,+08:00,10.7683,123.017
1402,14,53,9804,BCI,Barcaldine Airport,+10:00,-23.5653,145.307
1406,181,NULL,9808,BCM,Bacau Airport,+03:00,46.5219,26.9103
1419,14,53,9823,BDB,Bundaberg Airport,+10:00,-24.9039,152.319
1425,103,NULL,9829,BDH,Bandar Lengeh Airport,+03:30,26.5314,54.8275
1427,102,NULL,9831,BDJ,Banjarmasin Airport,+08:00,-3.44222,114.762
1431,102,NULL,9835,BDO,Bandung Airport,+07:00,-6.90056,107.576
1432,154,NULL,9836,BDP,Bhadrapur Airport,+05:45,26.5667,88.0833
1433,101,NULL,9837,BDQ,Vadodara Airport,+05:30,22.3361,73.2264
1434,231,7,9838,BDR,Bridgeport Airport,-05:00,41.1636,-73.1261
1435,108,NULL,9839,BDS,Brindisi Airport,+02:00,40.6606,17.9481
1436,51,NULL,9840,BDT,Gbadolite Airport,+01:00,4.25472,20.9719
1437,165,NULL,9841,BDU,Bardufoss Airport,+02:00,69.0558,18.5403
1444,230,NULL,9848,BEB,Benbecula Airport,+00:00,57.4775,-7.36639
1445,231,20,9849,BED,Bedford/Hanscom Airport,-05:00,42.47,-71.2892
1448,194,NULL,9852,BEG,Belgrade Airport,+02:00,44.8183,20.3092
1450,69,NULL,9854,BEI,Beica Airport,+03:00,9.35,34.5167
1451,102,NULL,9855,BEJ,Berau Airport,+08:00,2.16667,117.7
1453,31,115,9857,BEL,Belem Airport,-03:00,-1.37917,-48.4764
1455,125,NULL,9859,BEN,Benghazi Airport,+02:00,32.0967,20.2694
1457,230,NULL,9861,BEQ,Bury St Edmunds Airport,+00:00,52.35,0.766667
1458,74,NULL,9863,BES,Brest Airport,+02:00,48.4472,-4.42167
1459,14,53,9865,BEU,Bedourie Airport,+10:00,-24.3461,139.46
1461,150,NULL,9867,BEW,Beira Airport,+02:00,-19.7964,34.9075
1463,122,NULL,9869,BEY,Beirut Airport,+03:00,33.8208,35.4883
1468,231,39,9874,BFD,Bradford Airport,-04:00,41.8031,-78.64
1469,81,NULL,9875,BFE,Bielefeld Airport,+01:00,51.9647,8.54472
1470,231,30,9876,BFF,Scottsbluff Airport,-06:00,41.8742,-103.596
1473,231,5,9879,BFL,Bakersfield Airport,-07:00,35.4336,-119.057
1474,202,NULL,9880,BFN,Bloemfontein Airport,+02:00,-29.0928,26.3025
1477,170,NULL,9883,BFQ,Bahia Pinas Airport,-05:00,7.58333,-78.1667
1481,216,NULL,9888,BFV,Buri Ram Airport,+07:00,15.2267,103.251
1484,48,NULL,9891,BGA,Bucaramanga Airport,-05:00,7.12639,-73.1847
1486,177,NULL,9893,BGC,Braganca Airport,+01:00,41.85,-6.73333
1489,42,NULL,9896,BGF,Bangui Airport,+01:00,4.39861,18.5189
1492,20,NULL,9899,BGI,Barbados Airport,-04:00,13.0747,-59.4925
1496,231,35,9903,BGM,Binghamton Airport,-05:00,42.2086,-75.9797
1498,165,NULL,9905,BGO,Bergen Airport,+01:00,60.2933,5.21806
1501,231,22,9908,BGR,Bangor Airport,-04:00,44.8075,-68.8281
1508,231,22,9916,BHB,Bar Harbor Airport,-04:00,44.45,-68.3667
1510,158,NULL,9918,BHE,Blenheim Airport,+12:00,-41.5178,173.869
1512,97,NULL,9920,BHG,Brus Laguna Airport,-06:00,15.8333,-84.8333
1513,192,NULL,9921,BHH,Bisha Airport,+03:00,19.9844,42.6208
1514,11,60,9922,BHI,Bahia Blanca Airport,-03:00,-38.7272,-62.1533
1515,101,NULL,9923,BHJ,Bhuj Airport,+05:30,23.2878,69.6703
1516,234,NULL,9924,BHK,Bukhara Airport,+05:00,39.775,64.4833
1518,231,2,9926,BHM,Birmingham Airport,-05:00,33.5631,-86.7536
1520,101,NULL,9928,BHO,Bhopal Airport,+05:30,23.2875,77.3375
1522,14,52,9930,BHQ,Broken Hill Airport,+10:30,-32.0014,141.472
1523,154,NULL,9931,BHR,Bharatpur Airport,+05:45,27.6667,84.4167
1524,14,52,9932,BHS,Bathurst Airport,+11:00,-33.4094,149.652
1526,101,NULL,9934,BHU,Bhavnagar Airport,+05:30,21.7522,72.1853
1527,167,NULL,9935,BHV,Bahawalpur Airport,+05:00,29.3481,71.7181
1528,45,NULL,9937,BHY,Beihai Airport,+08:00,21.5394,109.294
1529,74,NULL,9939,BIA,Bastia Airport,+02:00,42.55,9.48472
1531,231,1,9941,BIC,Big Creek Airport,-09:00,57.6667,-157.583
1532,231,40,9942,BID,Block Island Airport,-04:00,41.1694,-71.5833
1535,231,5,9945,BIH,Bishop Airport,-08:00,37.3667,-118.35
1536,137,NULL,9946,BII,Bikini Atoll Airport,+12:00,11.5833,165.383
1538,102,NULL,9948,BIK,Biak Airport,+09:00,-1.19,136.108
1539,231,27,9949,BIL,Billings Airport,-06:00,45.8078,-108.543
1541,204,NULL,9952,BIO,Bilbao Airport,+02:00,43.3011,-2.91056
1543,74,NULL,9954,BIQ,Biarritz Airport,+02:00,43.4683,-1.53111
1544,154,NULL,9955,BIR,Biratnagar Airport,+05:45,26.4814,87.2642
1545,231,29,9956,BIS,Bismarck Airport,-05:00,46.7728,-100.746
1553,4,NULL,9964,BJA,Bejaia Airport,+01:00,36.7119,5.07
1554,103,NULL,9965,BJB,Bojnord Airport,+03:30,37.4892,57.3064
1558,165,NULL,9969,BJF,Batsfjord Airport,+02:00,70.6003,29.6925
1561,231,24,9972,BJI,Bemidji Airport,-05:00,47.5167,-94.9333
1564,79,NULL,9975,BJL,Banjul Airport,+00:00,13.3381,-16.6522
1565,36,NULL,9976,BJM,Bujumbura Airport,+02:00,-3.32389,29.3186
1569,69,NULL,9980,BJR,Bahar Dar Airport,+03:00,11.6081,37.3217
1570,205,NULL,9982,BJT,Bentota River Airport,+06:00,6.41667,79.9833
1572,102,NULL,9984,BJW,Bajawa Airport,+08:00,-8.78333,120.967
1573,142,NULL,9985,BJX,Leon/Guanajuato Airport,-06:00,20.9933,-101.481
1574,204,NULL,9986,BJZ,Badajoz Airport,+02:00,38.8914,-6.82139
1576,231,1,9988,BKC,Buckland Airport,-08:00,65.9817,-161.149
1581,133,NULL,9993,BKI,Kota Kinabalu Airport,+08:00,5.93722,116.053
1583,216,NULL,9995,BKK,Bangkok Suvarnabhumi International Airport,+07:00,13.9144,100.606
1584,133,NULL,9996,BKM,Bakalalan Airport,+08:00,3.97389,115.617
1586,135,NULL,9998,BKO,Bamako Airport,+00:00,12.5336,-7.95
1588,14,53,10000,BKQ,Blackall Airport,+10:00,-24.4278,145.429
1590,102,NULL,10002,BKS,Bengkulu Airport,+07:00,-3.86361,102.339
1593,231,50,10005,BKW,Beckley Airport,-04:00,37.7872,-81.1242
1595,51,NULL,10007,BKY,Bukavu Airport,+02:00,-2.30889,28.8089
1597,236,NULL,10009,BLA,Barcelona Airport,-04:30,10.1072,-64.6892
1600,231,34,13163,BLD,Las Vegas Boulder City Airport,-08:00,35.9833,-114.833
1601,210,NULL,10013,BLE,Borlange/Falun Airport,+02:00,60.4219,15.5153
1605,231,48,10017,BLI,Bellingham Airport,-07:00,48.7928,-122.537
1606,4,NULL,10018,BLJ,Batna Airport,+01:00,35.7522,6.30861
1607,230,NULL,10019,BLK,Blackpool Airport,+01:00,53.7714,-3.02833
1608,59,NULL,10020,BLL,Billund Airport,+02:00,55.7403,9.15167
1613,108,NULL,10025,BLQ,Bologna Airport,+02:00,44.5308,11.2969
1614,101,NULL,10026,BLR,Bangalore (Bengaluru) Airport,+05:30,12.95,77.6683
1616,14,53,10028,BLT,Blackwater Airport,+10:00,-23.6031,148.807
1622,132,NULL,10034,BLZ,Blantyre Airport,+02:00,-15.6792,34.9739
1625,131,NULL,10037,BMD,Belo Airport,+03:00,-19.6867,44.5419
1626,14,57,10038,BME,Broome Airport,+08:00,-17.9447,122.232
1630,231,15,10042,BMI,Bloomington-Normal Airport,-05:00,40.4772,-88.9158
1636,151,NULL,10048,BMO,Bhamo Airport,+06:30,24.2667,97.25
1641,102,NULL,10053,BMU,Bima Airport,+08:00,-8.53972,118.687
1642,237,NULL,10054,BMV,Ban Me Thuot Airport,+07:00,12.6683,108.12
1643,4,NULL,10055,BMW,Bordj Badji Mokhtar Airport,+01:00,21.1333,1.06667
1645,157,NULL,10057,BMY,Belep Island Airport,+11:00,-19.75,163.667
1647,231,43,10059,BNA,Nashville Airport,-06:00,36.1244,-86.6783
1649,51,NULL,10061,BNC,Beni Airport,+02:00,0.583333,29.4667
1650,103,NULL,10062,BND,Bandar Abbas Airport,+03:30,27.2186,56.3778
1651,14,53,10063,BNE,Brisbane Airport,+10:00,-27.3842,153.117
1654,161,NULL,10066,BNI,Benin City Airport,+01:00,6.31694,5.59944
1655,14,52,10067,BNK,Ballina Airport,+11:00,-28.8339,153.562
1658,165,NULL,10070,BNN,Bronnoysund Airport,+02:00,65.4611,12.2175
1663,236,NULL,10075,BNS,Barinas Airport,-04:30,8.61944,-70.2208
1668,28,NULL,10080,BNX,Banja Luka Airport,+02:00,44.9414,17.2975
1669,200,NULL,10081,BNY,Bellona Airport,+11:00,-11.3022,159.799
1671,51,NULL,10083,BOA,Boma Airport,+01:00,-5.86667,13.0667
1672,76,NULL,10084,BOB,Bora Bora (Tahiti) Airport,-10:00,-16.4444,-151.751
1673,170,NULL,10085,BOC,Bocas Del Toro Airport,-05:00,9.34083,-82.2508
1675,48,NULL,10088,BOG,Bogota Airport,-05:00,4.70167,-74.1469
1676,230,NULL,10089,BOH,Bournemouth Airport,+01:00,50.78,-1.8425
1677,231,14,10090,BOI,Boise Airport,-06:00,43.5644,-116.223
1678,34,NULL,10091,BOJ,Burgas Airport,+03:00,42.5697,27.5153
1681,101,NULL,10094,BOM,Mumbai Airport,+05:30,19.0886,72.8681
1682,156,NULL,10095,BON,Bonaire Airport,-04:00,12.1311,-68.2686
1683,165,NULL,10096,BOO,Bodo Airport,+02:00,67.2692,14.3653
1687,171,NULL,10101,BOT,Boset Airport,+10:00,-7.23333,141.083
1692,35,NULL,10106,BOY,Bobo Dioulasso Airport,+00:00,11.16,-4.33083
1699,200,NULL,10113,BPF,Batuna Airport,+11:00,-8.58333,158.117
1704,102,NULL,10118,BPN,Balikpapan Airport,+08:00,-1.26833,116.894
1705,31,80,10119,BPS,Porto Seguro Airport,-03:00,-16.4386,-39.0808
1707,45,NULL,10122,BPX,Changdu Bangda Airport,+08:00,30.5511,97.1106
1708,131,NULL,10123,BPY,Besalampy Airport,+03:00,-16.7419,44.4814
1713,14,53,10128,BQL,Boulia Airport,+10:00,-22.9133,139.9
1714,178,NULL,10129,BQN,Aguadilla Airport,-04:00,18.495,-67.1294
1717,182,NULL,10132,BQS,Blagoveschensk Airport,+10:00,50.4253,127.412
1718,21,NULL,10133,BQT,Brest Airport,+02:00,52.1167,23.8833
1721,31,80,10136,BRA,Barreiras Airport,-02:00,-12.05,-45
1723,11,70,10138,BRC,San Carlos de Bariloche Airport,-03:00,-41.1511,-71.1578
1724,231,24,10139,BRD,Brainerd Airport,-06:00,46.4,-94.1333
1725,81,NULL,10140,BRE,Bremen Airport,+02:00,53.0475,8.78667
1727,231,18,10142,BRG,Whitesburg Airport,-05:00,37.1167,-82.8167
1729,108,NULL,10144,BRI,Bari Airport,+02:00,41.1381,16.765
1732,231,13,10147,BRL,Burlington Airport,-06:00,40.7833,-91.1256
1733,236,NULL,10148,BRM,Barquisimeto Airport,-04:30,10.0428,-69.3586
1734,231,44,10150,BRO,Brownsville Airport,-05:00,25.9069,-97.4258
1736,230,NULL,10153,BRR,Barra Airport,+01:00,57.0269,-7.4375
1737,230,NULL,10154,BRS,Bristol Airport,+01:00,51.3825,-2.71889
1738,14,59,10155,BRT,Bathurst Island Airport,+09:30,-11.7667,130.633
1743,201,NULL,10162,BSA,Bossaso Airport,+03:00,11.2756,49.1578
1744,31,82,10163,BSB,Brasilia Airport,-03:00,-15.8711,-47.9186
1745,48,NULL,10164,BSC,Bahia Solano Airport,-05:00,6.20306,-77.3947
1746,45,NULL,10165,BSD,Baoshan Airport,+08:00,25.0533,99.1686
1749,66,NULL,10168,BSG,Bata Airport,+01:00,1.90556,9.80556
1753,4,NULL,10172,BSK,Biskra Airport,+01:00,34.7933,5.73833
1756,174,NULL,10175,BSO,Basco Airport,+08:00,20.4514,121.98
1759,104,NULL,10178,BSR,Basra Airport,+03:00,30.5492,47.6622
1765,151,NULL,10184,BSX,Bassein Airport,+06:30,16.8,94.7833
1767,231,1,10186,BSZ,Bartletts Airport,-09:00,58.2667,-157.483
1775,102,NULL,10194,BTH,Batam Airport,+07:00,1.12111,104.119
1776,231,1,10195,BTI,Barter Island Airport,-08:00,70.1339,-143.582
1777,102,NULL,10196,BTJ,Banda Aceh Airport,+07:00,5.52361,95.4203
1778,182,NULL,10197,BTK,Bratsk Airport,+09:00,56.3706,101.698
1779,231,23,10198,BTL,Battle Creek Airport,-05:00,42.3,-85.25
1780,231,27,10199,BTM,Butte Airport,-07:00,45.9547,-112.497
1785,231,1,10206,BTT,Bettles Airport,-08:00,66.9139,-151.529
1786,133,NULL,10207,BTU,Bintulu Airport,+08:00,3.12417,113.02
1787,231,47,10208,BTV,Burlington Airport,-04:00,44.4719,-73.1533
1792,171,NULL,10213,BUA,Buka Airport,+10:00,-5.42222,154.673
1794,14,53,10215,BUC,Burketown Airport,+10:00,-17.7486,139.534
1795,99,NULL,10216,BUD,Budapest Airport,+02:00,47.4369,19.2556
1796,231,35,10218,BUF,Buffalo Airport,-05:00,42.9406,-78.7322
1801,171,NULL,10224,BUL,Bulolo Airport,+10:00,-7.2,146.65
1803,48,NULL,10226,BUN,Buenaventura Airport,-05:00,3.81972,-76.9897
1806,244,NULL,10229,BUQ,Bulawayo Airport,+02:00,-20.0175,28.6178
1807,231,5,10230,BUR,Burbank Airport,-07:00,34.2006,-118.359
1808,80,NULL,10231,BUS,Batumi Airport,+04:00,41.6103,41.5997
1812,102,NULL,10235,BUW,Baubau Airport,+08:00,-5.46667,122.633
1813,51,NULL,10236,BUX,Bunia Airport,+02:00,1.56583,30.2208
1815,103,NULL,10238,BUZ,Bushehr Airport,+03:30,28.9494,50.8303
1816,31,94,10239,BVB,Boa Vista Airport,-04:00,2.84639,-60.69
1817,40,NULL,10240,BVC,Boa Vista Airport,-01:00,16.1367,-22.8889
1819,74,NULL,10242,BVE,Brive-la-Gaillarde Airport,+02:00,45.1508,1.46917
1821,165,NULL,10244,BVG,Berlevag Airport,+02:00,70.8675,29.0336
1822,31,93,10245,BVH,Vilhena Airport,-04:00,-12.6944,-60.0983
1823,14,53,10246,BVI,Birdsville Airport,+10:00,-25.8975,139.348
1836,154,NULL,10259,BWA,Bhairawa Airport,+05:45,27.5058,83.4164
1840,81,NULL,10263,BWE,Braunschweig/Wolfsburg Airport,+01:00,52.3192,10.5561
1845,55,NULL,10269,BWK,Brac Airport,+02:00,43.2858,16.6797
1848,33,NULL,10272,BWN,Bandar Seri Begawan Airport,+08:00,4.94417,114.928
1853,14,55,10277,BWT,Burnie Airport,+11:00,-40.9989,145.731
1855,56,NULL,10279,BWW,Cayo Las Brujas Airport,-04:00,22.6214,-79.1472
1866,113,NULL,10290,BXJ,Burundai Airport,+06:00,43.3667,76.8333
1871,103,NULL,10296,BXR,Bam Airport,+03:30,29.0842,58.4497
1874,174,NULL,10299,BXU,Butuan Airport,+08:00,8.95139,125.478
1880,27,NULL,10305,BYC,Yacuiba Airport,-04:00,-21.9667,-63.7
1886,56,NULL,10312,BYM,Bayamo Airport,-04:00,20.3964,-76.6214
1887,146,NULL,10313,BYN,Bayankhongor Airport,+08:00,46.1633,100.704
1888,31,114,10314,BYO,Bonito Airport,-03:00,-21.2294,-56.4561
1890,59,NULL,10316,BYR,Laeso Airport,+01:00,57.2772,11
1900,176,NULL,10327,BZG,Bydgoszcz Airport,+02:00,53.0967,17.9778
1902,182,NULL,10330,BZK,Briansk Airport,+03:00,53.2667,34.3333
1905,231,27,10333,BZN,Bozeman Airport,-06:00,45.7775,-111.153
1906,108,NULL,10334,BZO,Bolzano/Bozen Airport,+02:00,46.5308,11.3264
1908,74,NULL,10336,BZR,Beziers Airport,+02:00,43.3233,3.35333
1911,50,NULL,10339,BZV,Brazzaville Airport,+01:00,-4.25167,15.2531
1913,230,NULL,10341,BZZ,Brize Norton Airport,+00:00,51.75,-1.58333
1915,7,NULL,10343,CAB,Cabinda Airport,+01:00,-5.58333,12.2
1916,31,90,10344,CAC,Cascavel Airport,-02:00,-25.0003,-53.5008
1919,108,NULL,10348,CAG,Cagliari Airport,+02:00,39.2472,9.05611
1920,237,NULL,10349,CAH,Ca Mau Airport,+07:00,9.17694,105.178
1921,64,NULL,10350,CAI,Cairo Airport,+02:00,30.1219,31.4056
1923,230,NULL,10353,CAL,Campbeltown Airport,+01:00,55.4372,-5.68639
1925,45,NULL,10355,CAN,Guangzhou Airport,+08:00,23.3925,113.299
1927,94,NULL,10357,CAP,Cap Haitien Airport,-04:00,19.7331,-72.1947
1935,75,NULL,10366,CAY,Cayenne Airport,-03:00,4.81972,-52.3606
1936,14,52,10367,CAZ,Cobar Airport,+11:00,-31.5333,145.8
1938,27,NULL,10369,CBB,Cochabamba Airport,-04:00,-17.4211,-66.1772
1943,230,NULL,10374,CBG,Cambridge Airport,+00:00,52.205,0.175
1944,4,NULL,10375,CBH,Bechar Airport,+01:00,31.65,-2.25
1950,174,NULL,10381,CBO,Cotabato Airport,+08:00,7.16528,124.21
1952,161,NULL,10383,CBQ,Calabar Airport,+01:00,4.97611,8.34722
1953,14,58,10384,CBR,Canberra Airport,+11:00,-35.3069,149.195
1955,7,NULL,10386,CBT,Catumbela Airport,+01:00,-12.4833,13.4833
1963,56,NULL,10395,CCC,Cayo Coco Airport,-04:00,22.4611,-78.3283
1964,74,NULL,10396,CCF,Carcassonne Airport,+01:00,43.2158,2.30861
1968,101,NULL,10400,CCJ,Kozhikode Calicut Airport,+05:30,11.1369,75.9553
1969,47,NULL,10401,CCK,Cocos Islands Airport,+06:30,-12.1883,96.8339
1971,31,116,10403,CCM,Criciuma Airport,-02:00,-28.7258,-49.4247
1972,1,NULL,10404,CCN,Chakcharan Airport,+04:30,34.5333,65.2667
1974,44,NULL,10406,CCP,Concepcion Airport,-03:00,-36.7728,-73.0631
1977,236,NULL,10409,CCS,Caracas Airport,-04:30,10.6031,-66.9906
1979,101,NULL,10411,CCU,Kolkata Airport,+05:30,22.6547,88.4467
1980,235,NULL,10412,CCV,Craig Cove Airport,+11:00,-16.2667,167.917
1984,17,NULL,10416,CCZ,Chub Cay Airport,-04:00,25.4172,-77.8808
1986,231,1,10418,CDB,Cold Bay Airport,-09:00,55.2061,-162.726
1987,231,45,10419,CDC,Cedar City Airport,-07:00,37.7008,-113.099
2000,231,30,10432,CDR,Chadron Airport,-06:00,42.8333,-103.083
2003,231,32,10436,CDW,Caldwell Airport,-05:00,40.8667,-74.2833
2006,174,NULL,10439,CEB,Cebu Airport,+08:00,10.3075,123.979
2007,231,5,10440,CEC,Crescent City Airport,-08:00,41.7803,-124.237
2008,14,54,10441,CED,Ceduna Airport,+10:30,-32.1306,133.71
2009,182,NULL,10442,CEE,Cherepovets Airport,+04:00,59.2919,38.0186
2012,216,NULL,10445,CEI,Chiang Rai Airport,+07:00,19.9522,99.8831
2014,182,NULL,10447,CEK,Chelyabinsk Airport,+06:00,55.3058,61.5033
2016,231,1,10449,CEM,Central Airport,-08:00,65.5667,-144.783
2017,142,NULL,10450,CEN,Ciudad Obregon Airport,-07:00,27.3928,-109.833
2028,231,6,10462,CEZ,Cortez Airport,-06:00,37.3167,-108.633
2029,231,1,10463,CFA,Coffee Point Airport,-09:00,58.2306,-157.5
2030,31,91,10464,CFB,Cabo Frio Airport,-02:00,-22.925,-42.0786
2031,31,116,10465,CFC,Cacador Airport,-03:00,-26.7906,-50.9414
2033,74,NULL,10467,CFE,Clermont-Ferrand Airport,+02:00,45.7858,3.1625
2038,4,NULL,10472,CFK,Chlef Airport,+01:00,36.2128,1.33167
2039,105,NULL,10473,CFN,Donegal Airport,+01:00,55.0442,-8.34111
2043,74,NULL,10477,CFR,Caen Airport,+02:00,49.1733,-0.45
2044,14,52,10478,CFS,Coffs Harbour Airport,+11:00,-30.3206,153.116
2046,84,NULL,10480,CFU,Kerkyra Airport,+03:00,39.6019,19.9117
2048,231,1,10482,CGA,Craig Airport,-08:00,55.4833,-133.15
2049,31,113,10483,CGB,Cuiaba Airport,-04:00,-15.6531,-56.1167
2051,45,NULL,10485,CGD,Changde Airport,+08:00,28.9197,111.54
2054,231,25,10488,CGI,Cape Girardeau Airport,-05:00,37.2253,-89.5708
2057,45,NULL,10492,CGO,Zhengzhou Airport,+08:00,34.5194,113.841
2058,19,NULL,10493,CGP,Chittagong Airport,+06:00,22.2497,91.8133
2059,45,NULL,10494,CGQ,Changchun Airport,+08:00,43.9961,125.685
2060,31,114,10495,CGR,Campo Grande Airport,-04:00,-20.4686,-54.6725
2065,174,NULL,10500,CGY,Cagayan de Oro Airport,+08:00,8.41556,124.611
2068,158,NULL,10504,CHC,Christchurch Airport,+13:00,-43.4894,172.532
2071,45,NULL,10508,CHG,Chaoyang Airport,+08:00,41.6017,120.405
2076,173,NULL,10514,CHM,Chimbote Airport,-05:00,-9.08333,-78.6
2078,231,46,10516,CHO,Charlottesville Airport,-04:00,38.1386,-78.4528
2080,84,NULL,10518,CHQ,Chania Airport,+03:00,35.5317,24.1497
2082,231,41,10520,CHS,Charleston Airport,-04:00,32.8986,-80.0406
2083,158,NULL,10521,CHT,Chatham Island Airport,+13:45,-43.8119,176.465
2084,231,1,10522,CHU,Chuathbaluk Airport,-08:00,61.6667,-159.25
2087,170,NULL,10525,CHX,Changuinola Airport,-05:00,9.45861,-82.5169
2088,200,NULL,10526,CHY,Choiseul Bay Airport,+11:00,-6.71194,156.396
2090,231,5,10528,CIC,Chico Airport,-07:00,39.8,-121.85
2091,231,13,10529,CID,Cedar Rapids Airport,-05:00,41.8847,-91.7108
2093,45,NULL,10531,CIF,Chifeng Airport,+08:00,42.2358,118.908
2095,45,NULL,10533,CIH,Changzhi Airport,+08:00,36.2475,113.126
2096,27,NULL,10534,CIJ,Cobija Airport,-04:00,-11.0406,-68.7831
2097,231,1,10535,CIK,Chalkyitsik Airport,-08:00,66.65,-143.75
2102,243,NULL,10540,CIP,Chipata Airport,+02:00,-13.56,32.5875
2106,113,NULL,10544,CIT,Shimkent Airport,+06:00,42.3642,69.4789
2108,188,NULL,10546,CIW,Canouan Island Airport,-04:00,12.6992,-61.3425
2109,173,NULL,10547,CIX,Chiclayo Airport,-05:00,-6.7875,-79.8281
2111,31,78,10549,CIZ,Coari Airport,-04:00,-4.08333,-63.1333
2112,173,NULL,10550,CJA,Cajamarca Airport,-05:00,-7.13917,-78.4894
2113,101,NULL,10551,CJB,Coimbatore Airport,+05:30,11.03,77.0433
2114,44,NULL,10552,CJC,Calama Airport,-03:00,-22.4981,-68.9036
2118,117,NULL,10556,CJJ,Cheongju Airport,+09:00,36.7167,127.499
2119,167,NULL,10557,CJL,Chitral Airport,+05:00,35.8867,71.8006
2120,216,NULL,10558,CJM,Chumphon Airport,+07:00,10.493,99.18
2122,142,NULL,10560,CJS,Ciudad Juarez Airport,-06:00,31.6361,-106.429
2125,231,50,10564,CKB,Clarksburg Airport,-04:00,39.2967,-80.2281
2127,231,1,10566,CKD,Crooked Creek Airport,-08:00,61.8667,-158.133
2129,45,NULL,10568,CKG,Chongqing Airport,+08:00,29.7194,106.642
2130,182,NULL,10569,CKH,Chokurdah Airport,+12:00,70.6244,147.897
2138,31,115,10577,CKS,Carajas Airport,-03:00,-6.11778,-50.0036
2141,231,1,10580,CKX,Chicken Airport,-08:00,64.0833,-141.917
2142,91,NULL,10581,CKY,Conakry Airport,+00:00,9.57694,-13.6119
2143,223,NULL,10582,CKZ,Canakkale Airport,+02:00,40.1378,26.4267
2150,181,NULL,10590,CLJ,Cluj-Napoca Airport,+03:00,46.7853,23.6861
2151,231,44,10591,CLL,College Station Airport,-05:00,30.5886,-96.3639
2152,231,48,10592,CLM,Port Angeles Airport,-07:00,48.1333,-123.5
2154,48,NULL,10594,CLO,Cali Airport,-05:00,3.54333,-76.3817
2155,231,1,10595,CLP,Clarks Point Airport,-08:00,58.85,-158.5
2156,142,NULL,10596,CLQ,Colima Airport,-05:00,19.2769,-103.577
2159,231,28,10599,CLT,Charlotte Airport,-04:00,35.2139,-80.9431
2163,74,NULL,10603,CLY,Calvi Airport,+02:00,42.5203,8.79306
2165,14,53,10605,CMA,Cunnamulla Airport,+10:00,-28.03,145.622
2168,142,NULL,10609,CME,Ciudad Del Carmen Airport,-06:00,18.6536,-91.7989
2169,74,NULL,10610,CMF,Chambery/Aix-les-Bains Airport,+01:00,45.6392,5.88
2170,31,114,10611,CMG,Corumba Airport,-03:00,-19.0119,-57.6731
2171,231,15,10613,CMI,Champaign Airport,-05:00,40.0392,-88.2781
2182,171,NULL,10624,CMU,Kundiawa Airport,+10:00,-5.98333,144.983
2184,56,NULL,10626,CMW,Camaguey Airport,-04:00,21.4203,-77.8475
2185,231,23,10627,CMX,Hancock Airport,-04:00,47.1683,-88.4892
2190,14,53,10632,CNC,Coconut Island Airport,+10:00,-10.05,143.067
2191,181,NULL,10633,CND,Constanta Airport,+03:00,44.3622,28.4883
2194,231,31,10636,CNH,Claremont Airport,-05:00,43.3667,-72.3667
2196,14,53,10638,CNJ,Cloncurry Airport,+10:00,-20.6686,140.504
2199,231,33,10641,CNM,Carlsbad Airport,-06:00,32.3375,-104.263
2202,85,NULL,10644,CNP,Neerlerit Inaat Airport,-01:00,70.7433,-22.6606
2203,11,64,10645,CNQ,Corrientes Airport,-03:00,-27.4456,-58.7619
2205,14,53,10647,CNS,Cairns Airport,+10:00,-16.8858,145.755
2209,216,NULL,10651,CNX,Chiang Mai Airport,+07:00,18.7714,98.9628
2210,231,45,10652,CNY,Moab Airport,-06:00,38.7667,-109.75
2215,231,51,10657,COD,Cody Airport,-06:00,44.5167,-109.033
2220,101,NULL,10663,COK,Kochi Cochin Airport,+05:30,10.1519,76.4019
2221,230,NULL,10664,COL,Coll Airport,+01:00,56.6167,-6.61667
2224,24,NULL,10667,COO,Cotonou Airport,+01:00,6.35722,2.38444
2226,146,NULL,10669,COQ,Choibalsan Airport,+08:00,48.1356,114.646
2227,11,62,10670,COR,Cordoba Airport,-03:00,-31.31,-64.2083
2229,231,25,10673,COU,Columbia Airport,-06:00,38.8181,-92.2197
2235,124,NULL,10679,CPA,Cape Palmas Airport,+00:00,4.38333,-7.7
2237,11,120,10681,CPC,San Martin de Los Andes Airport,-03:00,-40.0753,-71.1372
2238,14,54,10682,CPD,Coober Pedy Airport,+10:30,-29.04,134.721
2239,142,NULL,10683,CPE,Campeche Airport,-06:00,19.8167,-90.5003
2246,44,NULL,10691,CPO,Copiapo Airport,-03:00,-27.2617,-70.7792
2247,31,97,10692,CPQ,Campinas Airport,-03:00,-23,-47.1333
2248,231,51,10693,CPR,Casper Airport,-07:00,42.9081,-106.464
2249,202,NULL,10694,CPT,Cape Town Airport,+02:00,-33.9647,18.6017
2251,31,87,10696,CPV,Campina Grande Airport,-03:00,-7.27,-35.8964
2252,178,NULL,10697,CPX,Culebra Airport,-04:00,18.3167,-65.3
2254,103,NULL,10699,CQD,Shahre-Kord Airport,+03:30,32.2972,50.8422
2258,181,NULL,10704,CRA,Craiova Airport,+03:00,44.3181,23.8886
2260,48,NULL,10706,CRC,Cartago Airport,-05:00,4.76667,-75.9333
2261,11,61,10707,CRD,Comodoro Rivadavia Airport,-03:00,-45.7853,-67.4656
2264,17,NULL,10710,CRI,Crooked Island Airport,-04:00,22.7456,-74.1822
2266,174,NULL,10712,CRM,Catarman Airport,+08:00,12.5025,124.636
2273,246,NULL,10720,CRU,Carriacou Airport,-04:00,12.4667,-61.4667
2274,108,NULL,10721,CRV,Crotone Airport,+01:00,38.9967,17.0792
2275,231,50,10722,CRW,Charleston Airport,-04:00,38.3731,-81.5931
2279,230,NULL,10726,CSA,Colonsay Island Airport,+01:00,56.0667,-6.21667
2285,182,NULL,10733,CSH,Solovetsky Airport,+04:00,65.0294,35.7333
2299,45,NULL,10749,CSX,Changsha Airport,+08:00,28.1833,113.217
2300,182,NULL,10750,CSY,Cheboksary Airport,+04:00,56.0903,47.3472
2302,108,NULL,10752,CTA,Catania Airport,+02:00,37.4667,15.0639
2304,11,117,10754,CTC,Catamarca Airport,-03:00,-28.5931,-65.7511
2305,170,NULL,10755,CTD,Chitre Airport,-05:00,7.98778,-80.4097
2306,170,NULL,10756,CTE,Carti Airport,-05:00,9.31667,-79.1
2308,48,NULL,10758,CTG,Cartagena Airport,-05:00,10.4425,-75.5131
2312,14,53,10762,CTL,Charleville Airport,+10:00,-26.4133,146.262
2313,142,NULL,10763,CTM,Chetumal Airport,-05:00,18.5047,-88.3269
2314,14,53,10764,CTN,Cooktown Airport,+10:00,-15.4447,145.184
2320,45,NULL,10770,CTU,Chengdu Airport,+08:00,30.5786,103.947
2326,48,NULL,10776,CUC,Cucuta Airport,-05:00,7.9275,-72.5117
2328,63,NULL,10778,CUE,Cuenca Airport,-05:00,-2.88944,-78.9844
2329,108,NULL,10779,CUF,Cuneo Airport,+02:00,44.5475,7.62306
2335,142,NULL,10785,CUL,Culiacan Airport,-06:00,24.7644,-107.475
2336,236,NULL,10786,CUM,Cumana Airport,-04:00,10.4503,-64.1306
2337,142,NULL,10787,CUN,Cancun Airport,-06:00,21.0367,-86.8772
2340,14,53,10790,CUQ,Coen Airport,+10:00,-13.7608,143.114
2341,156,NULL,10791,CUR,Curacao Airport,-04:00,12.1889,-68.9597
2344,142,NULL,10794,CUU,Chihuahua Airport,-06:00,28.7028,-105.964
2348,173,NULL,10798,CUZ,Cuzco Airport,-05:00,-13.5358,-71.9389
2357,142,NULL,10808,CVM,Ciudad Victoria Airport,-05:00,23.7033,-98.9564
2359,14,57,10811,CVQ,Carnarvon Airport,+08:00,-24.8806,113.672
2362,177,NULL,10814,CVU,Corvo Island Airport,+00:00,39.7,-31.1
2363,228,NULL,10816,CWC,Chernovtsy Airport,+03:00,48.2594,25.9808
2366,230,NULL,10819,CWL,Cardiff Airport,+01:00,51.3967,-3.34333
2373,19,NULL,10826,CXB,Cox's Bazar Airport,+06:00,21.4522,91.9639
2377,31,95,10830,CXJ,Caxias Do Sul Airport,-03:00,-29.1969,-51.1875
2386,41,NULL,10839,CYB,Cayman Brac Airport,-05:00,19.6869,-79.8828
2390,213,NULL,10843,CYI,Chiayi Airport,+08:00,23.4617,120.393
2392,56,NULL,10845,CYO,Cayo Largo del Sur Airport,-05:00,21.6164,-81.5461
2393,174,NULL,10846,CYP,Calbayog Airport,+08:00,12.0728,124.545
2397,182,NULL,10851,CYX,Cherskiy Airport,+12:00,68.7417,161.337
2398,174,NULL,10852,CYZ,Cauayan Airport,+08:00,16.9167,121.75
2402,236,NULL,10856,CZE,Coro Airport,-04:00,11.415,-69.6817
2405,170,NULL,10859,CZJ,Corazon de Jesus Airport,-05:00,9.01667,-77.9833
2407,4,NULL,10861,CZL,Constantine Airport,+01:00,36.2761,6.62028
2408,142,NULL,10862,CZM,Cozumel Airport,-05:00,20.5225,-86.9256
2412,31,77,10866,CZS,Cruzeiro Do Sul Airport,-04:00,-7.6,-72.7694
2414,48,NULL,10868,CZU,Corozal Airport,-05:00,9.33278,-75.2856
2416,45,NULL,10870,CZX,Changzhou Airport,+08:00,31.9194,119.778
2420,231,10,10874,DAB,Daytona Beach Airport,-04:00,29.18,-81.0581
2421,19,NULL,10875,DAC,Dhaka Airport,+06:00,23.8433,90.3978
2422,237,NULL,10876,DAD,Da Nang Airport,+07:00,16.0439,108.199
2430,212,NULL,10884,DAM,Damascus Airport,+02:00,33.4106,36.5142
2434,215,NULL,10888,DAR,Dar es Salaam Airport,+03:00,-6.87806,39.2025
2436,45,NULL,10890,DAT,Datong Airport,+08:00,39.7189,113.146
2437,171,NULL,10891,DAU,Daru Airport,+10:00,-9.08667,143.208
2438,170,NULL,10892,DAV,David Airport,-05:00,8.39111,-82.435
2439,45,NULL,10893,DAX,Dazhou (Daxian) Airport,+08:00,31.1319,107.431
2441,167,NULL,10896,DBA,Dalbandin Airport,+05:00,28.8686,64.4006
2446,14,52,10901,DBO,Dubbo Airport,+11:00,-32.2167,148.575
2448,231,13,10903,DBQ,Dubuque Airport,-05:00,42.4019,-90.7094
2451,205,NULL,10906,DBU,Dambula Airport,+06:00,7.86583,80.6272
2452,55,NULL,10907,DBV,Dubrovnik Airport,+02:00,42.5614,18.2683
2456,74,NULL,10911,DCM,Castres Airport,+02:00,43.555,2.29056
2460,231,17,10915,DDC,Dodge City Airport,-05:00,37.7633,-99.9656
2461,45,NULL,10916,DDG,Dandong Airport,+08:00,40.0256,124.287
2466,167,NULL,10921,DEA,Dera Ghazi Khan Airport,+05:00,29.9606,70.4853
2467,99,NULL,10922,DEB,Debrecen Airport,+02:00,47.4889,21.6153
2468,231,15,10923,DEC,Decatur Airport,-06:00,39.8344,-88.8656
2469,101,NULL,10924,DED,Dehra Dun Airport,+05:30,30.1897,78.1803
2473,101,NULL,10928,DEL,Delhi Airport,+05:30,28.5664,77.1031
2479,212,NULL,10935,DEZ,Deirezzor Airport,+02:00,35.2833,40.1667
2486,14,52,10943,DGE,Mudgee Airport,+11:00,-32.5667,149.617
2492,142,NULL,10949,DGO,Durango Airport,-05:00,24.1242,-104.528
2495,174,NULL,10952,DGT,Dumaguete Airport,+08:00,9.33361,123.301
2499,154,NULL,10956,DHI,Dhangarhi Airport,+05:45,28.25,80.675
2501,101,NULL,10958,DHM,Dharamsala Airport,+05:30,32.3,76.2667
2502,231,2,10959,DHN,Dothan Airport,-05:00,31.3214,-85.4497
2505,101,NULL,10962,DIB,Dibrugarh Airport,+05:30,27.4833,95.0167
2507,131,NULL,10964,DIE,Antsiranana Airport,+03:00,-12.3494,49.2917
2508,45,NULL,10965,DIG,Diqing (Xianggelila) Airport,+08:00,27.7917,99.6781
2509,74,NULL,10966,DIJ,Dijon Airport,+02:00,47.2658,5.76167
2510,231,29,10967,DIK,Dickinson Airport,-06:00,46.8,-102.8
2511,217,NULL,10968,DIL,Dili Airport,+09:00,-8.54667,125.525
2513,237,NULL,10970,DIN,Dien Bien Phu Airport,+07:00,21.3975,103.008
2514,231,1,10971,DIO,Diomede Island Airport,-11:00,65.75,-168.95
2517,69,NULL,10974,DIR,Dire Dawa Airport,+03:00,9.62472,41.8542
2519,101,NULL,10976,DIU,Diu Airport,+05:30,20.7167,70.9167
2521,205,NULL,10978,DIW,Dickwella Airport,+05:30,5.99083,80.7333
2522,223,NULL,10979,DIY,Diyarbakir Airport,+03:00,37.8939,40.2011
2524,102,NULL,10981,DJB,Jambi Airport,+07:00,-1.63806,103.644
2525,222,NULL,10982,DJE,Djerba Airport,+01:00,33.875,10.7756
2526,4,NULL,10983,DJG,Djanet Airport,+01:00,24.2928,9.4525
2527,102,NULL,10984,DJJ,Jayapura Airport,+09:00,-2.57694,140.516
2534,193,NULL,10991,DKR,Dakar Airport,+00:00,14.7397,-17.4903
2537,38,NULL,10994,DLA,Douala Airport,+01:00,4.00611,9.71944
2539,45,NULL,10996,DLC,Dalian Airport,+08:00,38.9656,121.539
2542,231,1,10999,DLG,Dillingham Airport,-08:00,59.0447,-158.506
2543,237,NULL,11001,DLI,Dalat Airport,+07:00,11.75,108.367
2546,223,NULL,11004,DLM,Dalaman Airport,+03:00,36.7131,28.7925
2551,45,NULL,11009,DLU,Dali Airport,+08:00,25.6503,100.319
2553,235,NULL,11011,DLY,Dillons Bay Airport,+11:00,-18.7667,168.983
2554,146,NULL,11012,DLZ,Dalanzadgad Airport,+08:00,43.5917,104.43
2556,14,53,11014,DMD,Doomadgee Mission Airport,+10:00,-17.9403,138.822
2557,192,NULL,11015,DMM,Dammam Airport,+03:00,26.4711,49.7978
2562,101,NULL,11020,DMU,Dimapur Airport,+05:30,25.8833,93.7667
2565,230,NULL,11023,DND,Dundee Airport,+01:00,56.4522,-3.02556
2568,45,NULL,11026,DNH,Dunhuang Airport,+08:00,40.0922,94.6817
2570,228,NULL,11028,DNK,Dnepropetrovsk Airport,+03:00,48.3572,35.1006
2575,74,NULL,11034,DNR,Dinard/St-Malo Airport,+02:00,48.5878,-2.08
2580,223,NULL,11039,DNZ,Denizli Airport,+03:00,37.7856,29.7014
2584,215,NULL,11043,DOD,Dodoma Airport,+03:00,-6.18333,35.75
2588,179,NULL,11047,DOH,Doha Airport,+03:00,25.2611,51.565
2590,228,NULL,11049,DOK,Donetsk Airport,+03:00,48.0736,37.7397
2591,74,NULL,11050,DOL,Deauville Airport,+02:00,49.3633,0.16
2594,154,NULL,11054,DOP,Dolpa Airport,+05:45,28.975,82.8167
2597,31,114,11057,DOU,Dourados Airport,-04:00,-22.2,-54.8667
2600,45,NULL,11060,DOY,Dongying Airport,+08:00,37.5078,118.789
2604,174,NULL,11064,DPL,Dipolog Airport,+08:00,8.60139,123.334
2605,14,55,11065,DPO,Devonport Airport,+11:00,-41.1697,146.43
2606,102,NULL,11066,DPS,Denpasar Bali Airport,+08:00,-8.74806,115.167
2614,231,1,11074,DRG,Deering Airport,-08:00,66.0694,-162.766
2621,81,NULL,11082,DRS,Dresden Airport,+01:00,51.1344,13.7681
2624,230,NULL,11087,DSA,Doncaster Airport,+01:00,53.4753,-1.00389
2630,167,NULL,11093,DSK,Dera Ismail Khan Airport,+05:00,31.9094,70.8967
2632,231,13,11095,DSM,Des Moines Airport,-06:00,41.5339,-93.6631
2633,45,NULL,11096,DSN,Dongsheng Airport,+08:00,39.8294,109.976
2640,81,NULL,11103,DTM,Dortmund Airport,+02:00,51.5183,7.61222
2643,105,NULL,11107,DUB,Dublin Airport,+01:00,53.4214,-6.27
2645,158,NULL,11109,DUD,Dunedin Airport,+13:00,-45.9292,170.197
2646,7,NULL,11110,DUE,Dundo Airport,+01:00,-7.4,20.8167
2648,231,39,11113,DUJ,Dubois Airport,-04:00,41.1783,-78.8986
2652,39,100,11117,DUQ,Duncan Airport,-08:00,48.7833,-123.7
2653,231,1,11120,DUT,Dutch Harbor Airport,-09:00,53.8333,-166.544
2656,231,29,11123,DVL,Devils Lake Airport,-05:00,48.1167,-98.9
2658,174,NULL,11125,DVO,Davao Airport,+08:00,7.12528,125.646
2662,131,NULL,11129,DWB,Soalala Airport,+03:00,-16.1,45.3667
2663,192,NULL,11130,DWD,Dawadmi Airport,+03:00,24.45,44.1211
2665,229,NULL,11132,DXB,Dubai International Airport,+04:00,25.2528,55.3644
2669,45,NULL,11136,DYG,Zhangjiajie Airport,+08:00,29.1028,110.446
2672,182,NULL,11139,DYR,Anadyr Airport,+12:00,64.735,177.741
2673,214,NULL,11140,DYU,Dushanbe Airport,+05:00,38.5433,68.825
2675,141,NULL,11142,DZA,Dzaoudzi Airport,+03:00,-12.8067,45.2806
2677,113,NULL,11144,DZN,Zhezkazgan Airport,+06:00,47.71,67.7403
2680,231,1,11147,EAA,Eagle Airport,-08:00,64.7764,-141.151
2682,235,NULL,11149,EAE,Emae Airport,+11:00,-17.1,168.333
2683,137,NULL,11150,EAL,Kwajalein Atoll Airport,+12:00,9.33306,166.835
2684,192,NULL,11151,EAM,Najran Airport,+03:00,17.6114,44.4192
2686,231,30,11154,EAR,Kearney Airport,-05:00,40.7333,-99.0167
2687,204,NULL,11155,EAS,San Sebastian Airport,+02:00,43.3564,-1.79056
2688,231,48,11156,EAT,Wenatchee Airport,-07:00,47.4,-120.2
2689,231,49,11157,EAU,Eau Claire Airport,-06:00,44.8658,-91.4842
2690,108,NULL,11158,EBA,Elba Island Airport,+02:00,42.7617,10.2397
2691,227,NULL,11159,EBB,Entebbe/Kampala Airport,+03:00,0.0425,32.4436
2692,206,NULL,11160,EBD,El Obeid Airport,+02:00,13.1528,30.2328
2698,74,NULL,11167,EBU,St-Etienne Airport,+01:00,45.5342,4.29722
2703,57,NULL,11172,ECN,Ercan Airport,+03:00,35.1597,33.4883
2707,231,1,11176,EDA,Edna Bay Airport,-08:00,55.95,-133.667
2712,230,NULL,11181,EDI,Edinburgh Airport,+01:00,55.95,-3.3725
2714,114,NULL,11183,EDL,Eldoret Airport,+03:00,0.404722,35.2389
2716,223,NULL,11185,EDO,Edremit/Korfez Airport,+03:00,39.5547,27.0139
2718,14,53,11187,EDR,Edward River Airport,+10:00,-14.9,141.617
2721,231,1,11190,EEK,Eek Airport,-08:00,60.2167,-162.017
2724,171,NULL,11193,EFG,Efogi Airport,+10:00,-9.15,147.667
2726,84,NULL,11195,EFL,Kefallinia Airport,+03:00,38.12,20.5006
2730,74,NULL,11199,EGC,Bergerac Airport,+02:00,44.8244,0.520556
2732,200,NULL,11202,EGM,Sege Airport,+11:00,-8.57861,157.876
2733,206,NULL,11203,EGN,Geneina Airport,+03:00,13.4836,22.4725
2734,182,NULL,11204,EGO,Belgorod Airport,+04:00,50.6439,36.59
2736,100,NULL,11206,EGS,Egilsstadir Airport,+00:00,65.2833,-14.4014
2737,231,49,11207,EGV,Eagle River Airport,-06:00,45.9333,-89.2667
2738,231,1,11208,EGX,Egegik Airport,-08:00,58.1856,-157.376
2743,81,NULL,11213,EIB,Eisenach Airport,+01:00,50.9928,10.4728
2744,182,NULL,11214,EIE,Eniseysk Airport,+07:00,58.4667,92.1167
2746,238,NULL,11217,EIS,Beef Island Airport,-04:00,18.4447,-64.5431
2748,48,NULL,11219,EJA,Barrancabermeja Airport,-05:00,7.02444,-73.8067
2749,192,NULL,11220,EJH,Wedjh Airport,+03:00,26.1986,36.4764
2757,231,34,11228,EKO,Elko Airport,-08:00,40.825,-115.792
2762,14,59,11233,ELC,Elcho Island Airport,+09:30,-12.0194,135.571
2763,231,3,11234,ELD,El Dorado Airport,-05:00,33.2211,-92.8133
2765,206,NULL,11236,ELF,El Fasher Airport,+03:00,13.615,25.3247
2766,4,NULL,11237,ELG,El Golea Airport,+01:00,30.5714,2.85972
2767,17,NULL,11238,ELH,North Eleuthera Airport,-05:00,25.475,-76.6836
2768,231,1,11239,ELI,Elim Airport,-08:00,64.6167,-162.267
2772,231,35,11243,ELM,Elmira/Corning Airport,-04:00,42.16,-76.8917
2775,192,NULL,11247,ELQ,Gassim Airport,+03:00,26.3028,43.7739
2777,202,NULL,11249,ELS,East London Airport,+02:00,-33.0356,27.8258
2779,4,NULL,11251,ELU,El Oued Airport,+01:00,33.5114,6.77667
2780,231,1,11252,ELV,Elfin Cove Airport,-08:00,58.1953,-136.348
2783,231,34,11255,ELY,Ely Airport,-07:00,39.3,-114.85
2785,14,53,11257,EMD,Emerald Airport,+10:00,-23.5675,148.179
2789,231,1,11261,EMK,Emmonak Airport,-08:00,62.7861,-164.491
2790,211,NULL,11262,EML,Emmen Airport,+01:00,47.0922,8.30472
2799,231,1,11271,ENA,Kenai Airport,-08:00,60.5731,-151.245
2801,102,NULL,11273,ENE,Ende Airport,+08:00,-8.84917,121.661
2802,73,NULL,11274,ENF,Enontekio Airport,+02:00,68.3625,23.4244
2803,45,NULL,11275,ENH,Enshi Airport,+08:00,30.3211,109.485
2811,155,NULL,11283,ENS,Enschede Airport,+01:00,52.2833,6.88333
2813,161,NULL,11285,ENU,Enugu Airport,+01:00,6.47417,7.56194
2815,231,49,11287,ENW,Kenosha Airport,-06:00,42.5958,-87.9278
2816,45,NULL,11288,ENY,Yan'an Airport,+08:00,36.6367,109.553
2817,230,NULL,11289,EOI,Eday Airport,+01:00,59.1906,-2.77222
2829,14,57,11301,EPR,Esperance Airport,+08:00,-33.6844,121.823
2832,68,NULL,11304,EPU,Parnu Airport,+02:00,58.4189,24.8061
2833,11,61,11305,EQS,Esquel Airport,-03:00,-42.9039,-71.1356
2836,223,NULL,11308,ERC,Erzincan Airport,+02:00,39.7103,39.5269
2839,81,NULL,11311,ERF,Erfurt Airport,+02:00,50.9797,10.9581
2840,149,NULL,11312,ERH,Errachidia Airport,+00:00,31.9475,-4.39833
2841,231,39,11313,ERI,Erie Airport,-05:00,42.0819,-80.1761
2842,31,95,11314,ERM,Erechim Airport,-03:00,-27.5833,-52.0167
2843,31,78,11315,ERN,Eirunepe Airport,-04:00,-6.66667,-69.8333
2849,223,NULL,11321,ERZ,Erzurum Airport,+03:00,39.9564,41.1703
2851,231,23,11323,ESC,Escanaba Airport,-05:00,45.7167,-87.0833
2852,231,48,11324,ESD,Eastsound Airport,-07:00,48.7167,-122.817
2858,63,NULL,11330,ESM,Esmeraldas Airport,-05:00,0.978611,-79.6267
2862,44,NULL,11334,ESR,El Salvador Airport,-03:00,-26.3083,-69.7517
2863,81,NULL,11335,ESS,Essen Airport,+01:00,51.4022,6.93722
2865,149,NULL,11337,ESU,Essaouira Airport,+00:00,31.3975,-9.68167
2870,107,NULL,11342,ETH,Elat Airport,+02:00,29.5614,34.96
2873,74,NULL,11345,ETZ,Metz/Nancy Lorraine Airport,+01:00,48.9783,6.24667
2878,231,38,11350,EUG,Eugene Airport,-07:00,44.1247,-123.212
2879,81,NULL,11351,EUM,Neumunster Airport,+01:00,54.1667,9.98333
2880,149,NULL,11352,EUN,Laayoune Airport,+00:00,27.1517,-13.2192
2883,156,NULL,11355,EUX,St Eustatius Airport,-04:00,17.4964,-62.9794
2886,165,NULL,11358,EVE,Harstad-Narvik Airport,+02:00,68.4914,16.6781
2887,210,NULL,11359,EVG,Sveg Airport,+01:00,62.0478,14.4231
2890,12,NULL,11362,EVN,Yerevan Airport,+04:00,40.1472,44.3958
2891,231,16,11363,EVV,Evansville Airport,-05:00,38.0369,-87.5325
2894,231,20,11366,EWB,New Bedford Airport,-04:00,41.6761,-70.9569
2895,231,1,11367,EWD,Wildman Lake Airport,-09:00,56.4564,-159.762
2899,231,28,11371,EWN,New Bern Airport,-04:00,35.0731,-77.0431
2902,231,1,11374,EXI,Excursion Inlet Airport,-08:00,58.4167,-135.433
2904,230,NULL,11376,EXT,Exeter Airport,+01:00,50.7344,-3.41389
2906,48,NULL,11378,EYP,El Yopal Airport,-05:00,5.31917,-72.3839
2909,223,NULL,11382,EZS,Elazig Airport,+03:00,38.6069,39.2914
2912,76,NULL,11385,FAC,Faaite Airport,-10:00,-16.6833,-145.333
2913,71,NULL,11386,FAE,Faroe Islands Airport,+01:00,62.0636,-7.27722
2916,1,NULL,11389,FAH,Farah Airport,+04:30,32.3667,62.1667
2922,177,NULL,11396,FAO,Faro Airport,+01:00,37.0144,-7.96583
2924,231,29,11398,FAR,Fargo Airport,-05:00,46.9206,-96.8158
2926,76,NULL,11401,FAV,Fakarava Airport,-10:00,-16.0542,-145.657
2932,51,NULL,11408,FBM,Lubumbashi Airport,+02:00,-11.5914,27.5308
2935,231,27,11411,FCA,Kalispell Airport,-06:00,48.3106,-114.256
2939,165,NULL,11415,FDE,Forde Airport,+02:00,61.385,5.7525
2940,138,NULL,11416,FDF,Fort de France Airport,-04:00,14.5911,-61.0031
2941,81,NULL,11417,FDH,Friedrichshafen Airport,+02:00,47.6714,9.51139
2949,234,NULL,11425,FEG,Fergana Airport,+05:00,40.3614,71.7447
2953,31,84,11429,FEN,Fernando De Noronha Airport,-02:00,-3.855,-32.4233
2958,149,NULL,11434,FEZ,Fes Airport,+00:00,33.9272,-4.97806
2968,76,NULL,11444,FGU,Fangatau Airport,-10:00,-15,-142
2970,76,NULL,11446,FHZ,Fakahina Airport,-10:00,-16,-140
2974,91,NULL,11450,FIG,Fria Airport,+00:00,10.35,-13.5667
2980,229,NULL,11457,FJR,Al-Fujairah Airport,+04:00,25.1122,56.3239
2982,51,NULL,11460,FKI,Kisangani Airport,+02:00,0.481667,25.3381
2985,102,NULL,11464,FKQ,Fak Fak Airport,+09:00,-2.92028,132.267
2986,110,NULL,11465,FKS,Fukushima Airport,+09:00,37.2275,140.431
2987,48,NULL,11466,FLA,Florencia Airport,-05:00,1.58917,-75.5644
2996,31,116,11476,FLN,Florianopolis Airport,-03:00,-27.6706,-48.5472
2997,231,41,11477,FLO,Florence Airport,-04:00,34.1853,-79.7239
2999,14,55,11480,FLS,Flinders Island Airport,+11:00,-40.0922,147.99
3002,177,NULL,11483,FLW,Flores Island Airport,+00:00,39.4553,-31.1314
3004,11,66,11485,FMA,Formosa Airport,-03:00,-26.2128,-58.2281
3010,231,33,11491,FMN,Farmington Airport,-06:00,36.75,-108.233
3011,81,NULL,11492,FMO,Muenster/Osnabrueck Airport,+02:00,52.1347,7.68472
3014,177,NULL,11497,FNC,Funchal Airport,+01:00,32.6942,-16.7781
3015,171,NULL,11498,FNE,Fane Airport,+10:00,-8.6,147.233
3018,74,NULL,11501,FNI,Nimes Airport,+01:00,43.7575,4.41639
3019,116,NULL,11502,FNJ,Pyongyang Airport,+09:00,39.2236,125.67
3022,231,23,11506,FNT,Flint Airport,-04:00,42.9656,-83.7436
3025,45,NULL,11509,FOC,Fuzhou Airport,+08:00,25.935,119.663
3026,231,13,11510,FOD,Fort Dodge Airport,-05:00,42.5511,-94.1919
3027,108,NULL,11511,FOG,Foggia Airport,+02:00,41.4333,15.5347
3030,53,NULL,11514,FON,Fortuna Airport,-06:00,10.4,-84.4833
3033,31,81,11517,FOR,Fortaleza Airport,-03:00,-3.77639,-38.5325
3039,17,NULL,11523,FPO,Freeport Airport,-05:00,26.5586,-78.6956
3044,231,48,11529,FRD,Friday Harbor Airport,-07:00,48.5256,-123.029
3045,200,NULL,11530,FRE,Fera Island Airport,+11:00,-8.1075,159.577
3051,108,NULL,11536,FRL,Forli Airport,+02:00,44.1956,12.0697
3054,165,NULL,11539,FRO,Floro Airport,+02:00,61.5836,5.02472
3058,89,NULL,11543,FRS,Flores Airport,-06:00,16.9167,-89.8833
3060,119,NULL,11545,FRU,Bishkek Airport,+06:00,43.0614,74.4775
3061,29,NULL,11546,FRW,Francistown Airport,+02:00,-21.1597,27.4744
3064,74,NULL,11549,FSC,Figari Airport,+01:00,41.5022,9.09667
3065,231,42,11550,FSD,Sioux Falls Airport,-06:00,43.5819,-96.7419
3069,231,3,11554,FSM,Fort Smith Airport,-05:00,35.3367,-94.3675
3071,187,NULL,11556,FSP,St Pierre Airport,-02:00,46.7628,-56.1731
3075,235,NULL,11560,FTA,Futuna Island Airport,+11:00,-19.5333,170.2
3076,11,122,11561,FTE,El Calafate Airport,-03:00,-50.28,-72.0533
3080,131,NULL,11565,FTU,Fort Dauphin Airport,+03:00,-25.0381,46.9561
3084,204,NULL,11569,FUE,Fuerteventura Airport,+01:00,28.4528,-13.8639
3085,45,NULL,11570,FUG,Fuyang Airport,+08:00,32.8667,115.7
3086,110,NULL,11571,FUJ,Fukue Airport,+09:00,32.6664,128.833
3087,110,NULL,11572,FUK,Fukuoka Airport,+09:00,33.5858,130.451
3090,226,NULL,11575,FUN,Funafuti Atol Airport,+12:00,-8.52528,179.196
3091,45,NULL,11576,FUO,Foshan Airport,+08:00,23.1333,113.283
3092,240,NULL,11577,FUT,Futuna Pointe Vele Airport,+12:00,-14.3114,-178.066
3102,231,1,11588,FYU,Fort Yukon Airport,-08:00,66.5714,-145.251
3108,222,NULL,11595,GAE,Gabes Airport,+01:00,33.8361,10
3109,222,NULL,11596,GAF,Gafsa Airport,+01:00,34.4219,8.8225
3113,110,NULL,11600,GAJ,Yamagata Airport,+09:00,38.4119,140.371
3115,231,1,11602,GAL,Galena Airport,-08:00,64.7361,-156.938
3116,231,1,11603,GAM,Gambell Airport,-08:00,63.7667,-171.733
3117,134,NULL,11604,GAN,Gan Island Airport,+05:00,-0.693333,73.1556
3123,101,NULL,11611,GAU,Guwahati Airport,+05:30,26.1061,91.5858
3126,78,NULL,11614,GAX,Gamba Airport,+01:00,-2.76667,9.98333
3127,101,NULL,11615,GAY,Gaya Airport,+05:30,24.7444,84.9511
3132,231,17,11620,GBD,Great Bend Airport,-05:00,38.35,-98.8667
3133,29,NULL,11621,GBE,Gaborone Airport,+02:00,-24.5553,25.9183
3147,103,NULL,11635,GBT,Gorgan Airport,+03:30,36.9114,54.3981
3152,231,51,11640,GCC,Gillette Airport,-07:00,44.35,-105.533
3154,230,NULL,11642,GCI,Guernsey Airport,+01:00,49.4347,-2.60194
3155,231,17,11643,GCK,Garden City Airport,-05:00,37.9275,-100.724
3156,41,NULL,11644,GCM,Grand Cayman Island Airport,-05:00,19.2928,-81.3578
3161,69,NULL,11650,GDE,Gode Airport,+03:00,5.935,43.5786
3166,142,NULL,11655,GDL,Guadalajara Airport,-05:00,20.5217,-103.311
3168,176,NULL,11657,GDN,Gdansk Airport,+02:00,54.3775,18.4661
3171,69,NULL,11660,GDQ,Gondar Airport,+03:00,12.52,37.4342
3172,225,NULL,11661,GDT,Grand Turk Airport,-04:00,21.4667,-71.1333
3173,231,27,11662,GDV,Glendive Airport,-06:00,47.1333,-104.683
3175,182,NULL,11664,GDX,Magadan Airport,+12:00,59.9111,150.721
3176,182,NULL,11665,GDZ,Gelendzik Airport,+04:00,44.5667,38.0167
3184,31,95,11674,GEL,Santo Angelo Airport,-03:00,-28.2817,-54.1692
3186,93,NULL,11676,GEO,Georgetown Airport,-04:00,6.49861,-58.2542
3187,56,NULL,11677,GER,Nueva Gerona Airport,-04:00,21.8347,-82.7839
3188,174,NULL,11678,GES,General Santos Airport,+08:00,6.10639,125.235
3189,14,57,11679,GET,Geraldton Airport,+08:00,-28.7961,114.707
3190,210,NULL,11680,GEV,Gallivare Airport,+02:00,67.1325,20.8147
3197,14,52,11687,GFF,Griffith Airport,+11:00,-34.2508,146.067
3198,231,29,11688,GFK,Grand Forks Airport,-05:00,47.9492,-97.1761
3200,14,52,11690,GFN,Grafton Airport,+11:00,-29.7594,153.03
3207,231,44,11697,GGG,Longview Airport,-06:00,32.3839,-94.7114
3212,11,122,11702,GGS,Gobernador Gregores Airport,-03:00,-48.7819,-70.1556
3213,17,NULL,11703,GGT,George Town Airport,-05:00,23.5625,-75.8781
3214,231,27,11704,GGW,Glasgow Airport,-06:00,48.2125,-106.615
3215,4,NULL,11705,GHA,Ghardaia Airport,+01:00,32.3842,3.79417
3216,17,NULL,11706,GHB,Governors Harbour Airport,-04:00,25.2847,-76.3311
3219,170,NULL,11709,GHE,Garachine Airport,-05:00,8.08333,-78.3333
3224,125,NULL,11714,GHT,Ghat Airport,+02:00,25.1456,10.1428
3226,83,NULL,11716,GIB,Gibraltar Airport,+02:00,36.1511,-5.34972
3231,167,NULL,11721,GIL,Gilgit Airport,+05:00,35.9189,74.3336
3234,158,NULL,11724,GIS,Gisborne Airport,+13:00,-38.6639,177.977
3236,205,NULL,11726,GIU,Sigiriya Airport,+06:00,7.95,80.7167
3238,192,NULL,11728,GIZ,Jazan Airport,+03:00,16.9011,42.5858
3239,97,NULL,11729,GJA,Guanaja Airport,-06:00,16.4439,-85.9039
3240,4,NULL,11730,GJL,Jijel Airport,+01:00,36.795,5.87361
3243,231,6,11733,GJT,Grand Junction Airport,-06:00,39.1167,-108.517
3244,171,NULL,11734,GKA,Goroka Airport,+10:00,-6.08167,145.392
3254,53,NULL,11745,GLF,Golfito Airport,-06:00,8.65389,-83.1806
3256,231,26,11747,GLH,Greenville Airport,-05:00,33.4772,-90.985
3258,201,NULL,11749,GLK,Galcaio Airport,+03:00,6.78111,47.4381
3261,149,NULL,11752,GLN,Guelmime Airport,+00:00,29.0267,-10.0503
3262,230,NULL,11753,GLO,Gloucester Airport,+01:00,51.8939,-2.16694
3267,14,53,11758,GLT,Gladstone Airport,+10:00,-23.8697,151.223
3268,231,1,11759,GLV,Golovin Airport,-08:00,64.55,-163.017
3273,51,NULL,11764,GMA,Gemena Airport,+01:00,3.23528,19.7714
3274,69,NULL,11765,GMB,Gambela Airport,+03:00,8.12889,34.5631
3280,76,NULL,11771,GMR,Gambier Island Airport,-09:00,-23.08,-134.89
3285,204,NULL,11776,GMZ,San Sebastian/Gomera Airport,+01:00,28.0297,-17.2147
3286,21,NULL,11777,GNA,Grodno Airport,+02:00,53.6667,23.8
3287,246,NULL,11778,GND,Grenada Airport,-04:00,12.0042,-61.7861
3294,102,NULL,11785,GNS,Gunungsitoli Airport,+07:00,1.28333,97.6167
3296,231,1,11787,GNU,Goodnews Bay Airport,-08:00,59.1167,-161.517
3297,231,10,11788,GNV,Gainesville Airport,-04:00,29.69,-82.2717
3299,108,NULL,11790,GOA,Genoa Airport,+02:00,44.4133,8.8375
3304,85,NULL,11795,GOH,Nuuk Airport,-03:00,64.1908,-51.6781
3305,101,NULL,11796,GOI,Goa Airport,+05:30,15.3808,73.8314
3306,182,NULL,11797,GOJ,Nizhniy Novgorod Airport,+04:00,56.23,43.7842
3309,51,NULL,11800,GOM,Goma Airport,+02:00,-1.67083,29.2383
3312,101,NULL,11803,GOP,Gorakhpur Airport,+05:30,26.7397,83.4497
3313,45,NULL,11804,GOQ,Golmud Airport,+08:00,36.4025,94.8989
3317,14,59,11809,GOV,Gove Airport,+09:30,-12.2694,136.818
3319,34,NULL,11811,GOZ,Gorna Oryahovitsa Airport,+02:00,43.1514,25.7128
3320,84,NULL,11812,GPA,Patrai Airport,+03:00,38.1511,21.4256
3321,31,90,11813,GPB,Guarapuava Airport,-03:00,-25.3833,-51.45
3322,48,NULL,11814,GPI,Guapi Airport,-05:00,2.57,-77.8986
3326,63,NULL,11818,GPS,Galapagos Islands Airport,-06:00,-0.453889,-90.2658
3327,231,26,11819,GPT,Gulfport/Biloxi Airport,-05:00,30.4072,-89.07
3331,48,NULL,11823,GRA,Gamarra Airport,-05:00,8.2,-73.7833
3332,231,49,11824,GRB,Green Bay Airport,-05:00,44.485,-88.1297
3338,231,30,11830,GRI,Grand Island Airport,-05:00,40.9675,-98.3097
3339,202,NULL,11831,GRJ,George Airport,+02:00,-34.0056,22.3789
3343,204,NULL,11835,GRO,Girona Airport,+02:00,41.9008,2.76056
3345,155,NULL,11837,GRQ,Groningen Airport,+02:00,53.125,6.58333
3346,231,23,11838,GRR,Grand Rapids Airport,-04:00,42.8808,-85.5228
3349,182,NULL,11841,GRV,Groznyj Airport,+04:00,43.3333,45.7
3350,177,NULL,11842,GRW,Graciosa Island Airport,+00:00,39.0922,-28.0297
3351,204,NULL,11843,GRX,Granada Airport,+01:00,37.1886,-3.77722
3353,15,NULL,11845,GRZ,Graz Airport,+02:00,46.9936,15.44
3360,103,NULL,11852,GSM,Gheshm Airport,+03:30,26.7519,55.8972
3362,231,28,11854,GSO,Greensboro/High Point Airport,-04:00,36.0978,-79.9372
3368,200,NULL,11862,GTA,Gatokae Airport,+11:00,-8.73861,158.203
3371,14,59,11865,GTE,Groote Eylandt Airport,+09:30,-13.975,136.46
3375,102,NULL,11870,GTO,Gorontalo Airport,+08:00,0.653889,122.85
3376,14,59,11871,GTS,Granites Airport,+09:30,-26.95,133.6
3380,89,NULL,11875,GUA,Guatemala City Airport,-06:00,14.5833,-90.5333
3382,231,6,11877,GUC,Gunnison Airport,-07:00,38.5333,-106.933
3394,171,NULL,11890,GUR,Alotau Airport,+10:00,-10.3333,150.35
3399,113,NULL,11895,GUW,Atyrau Airport,+05:00,47.1219,51.8214
3403,211,NULL,11899,GVA,Geneva Airport,+02:00,46.2381,6.10889
3408,31,86,11904,GVR,Governador Valadares Airport,-02:00,-18.8953,-41.9822
3412,167,NULL,11909,GWD,Gwadar Airport,+05:00,25.2333,62.3294
3414,101,NULL,11911,GWL,Gwalior Airport,+05:30,26.2933,78.2278
3418,81,NULL,11915,GWT,Westerland Airport,+02:00,54.9133,8.34056
3420,105,NULL,11917,GWY,Galway Airport,+00:00,53.3003,-8.94111
3421,242,NULL,11918,GXF,Seiyun Airport,+03:00,15.9661,48.7883
3422,7,NULL,11919,GXG,Negage Airport,+01:00,-7.76667,15.3
3426,27,NULL,11923,GYA,Guayaramerin Airport,-04:00,-10.8178,-65.3472
3427,63,NULL,11924,GYE,Guayaquil Airport,-05:00,-2.1575,-79.8836
3429,14,57,11926,GYL,Argyle Airport,+08:00,-16.6369,128.451
3430,142,NULL,11927,GYM,Guaymas Airport,-07:00,27.9689,-110.925
3431,31,85,11928,GYN,Goiania Airport,-03:00,-16.6319,-49.2206
3434,45,NULL,11931,GYS,Guangyuan Airport,+08:00,32.39,105.693
3438,200,NULL,11935,GZO,Gizo Airport,+11:00,-8.0975,156.864
3439,223,NULL,11936,GZT,Gaziantep Airport,+03:00,36.9472,37.4786
3441,165,NULL,11938,HAA,Hasvik Airport,+02:00,70.4867,22.1397
3443,110,NULL,11940,HAC,Hachijo Jima Airport,+09:00,33.115,139.786
3444,210,NULL,11941,HAD,Halmstad Airport,+02:00,56.6911,12.8203
3445,231,4,11942,HAE,Havasupai Airport,-07:00,36.2306,-112.669
3449,45,NULL,11947,HAK,Haikou Airport,+08:00,19.9347,110.459
3451,237,NULL,11950,HAN,Noi Bai International Airport,+07:00,21.2211,105.807
3453,134,NULL,11952,HAQ,Hanimaadhoo Airport,+05:00,6.74639,73.1686
3454,192,NULL,11954,HAS,Hail Airport,+03:00,27.4381,41.6864
3456,165,NULL,11956,HAU,Haugesund Airport,+02:00,59.3453,5.20833
3457,56,NULL,11957,HAV,Havana Jose Marti Intl Airport,-04:00,22.9833,-82.4167
3461,14,55,11961,HBA,Hobart Airport,+11:00,-42.8361,147.51
3471,192,NULL,11971,HBT,Hafr Albatin Airport,+03:00,27.8944,45.5264
3472,101,NULL,11972,HBX,Hubli Airport,+05:30,15.3333,75.2333
3476,213,NULL,11977,HCN,Hengchun Airport,+08:00,22.0411,120.73
3478,231,1,11979,HCR,Holy Cross Airport,-08:00,62.15,-159.783
3481,81,NULL,11982,HDB,Heidelberg Airport,+01:00,49.3933,8.65194
3482,167,NULL,11983,HDD,Hyderabad Airport,+05:00,25.3,68.3833
3484,81,NULL,11985,HDF,Heringsdorf Airport,+02:00,53.8786,14.1522
3486,103,NULL,11987,HDM,Hamadan Airport,+03:30,34.85,48.55
3488,202,NULL,11989,HDS,Hoedspruit Airport,+02:00,-24.3486,30.9464
3489,216,NULL,11990,HDY,Hat Yai Airport,+07:00,6.93278,100.395
3490,1,NULL,11991,HEA,Herat Airport,+04:30,34.21,62.2283
3494,151,NULL,11995,HEH,Heho Airport,+06:30,20.7469,96.7919
3495,81,NULL,11996,HEI,Heide/Buesum Airport,+01:00,54.1533,8.90167
3496,45,NULL,11997,HEK,Heihe Airport,+08:00,50.1717,127.309
3497,73,NULL,11998,HEL,Helsinki Airport,+02:00,60.3172,24.9633
3500,84,NULL,12001,HER,Irakleion Airport,+03:00,35.3397,25.1803
3502,45,NULL,12003,HET,Hohhot Airport,+08:00,40.8514,111.824
3505,107,NULL,12006,HFA,Haifa Airport,+02:00,32.8094,35.0431
3506,45,NULL,12008,HFE,Hefei Airport,+08:00,31.78,117.298
3509,210,NULL,12011,HFS,Hagfors Airport,+02:00,60.02,13.5789
3510,165,NULL,12012,HFT,Hammerfest Airport,+02:00,70.6833,23.6667
3511,201,NULL,12013,HGA,Hargeisa Airport,+03:00,9.51389,44.0839
3512,14,53,12014,HGD,Hughenden Airport,+10:00,-20.815,144.225
3513,45,NULL,12015,HGH,Hangzhou Airport,+08:00,30.2294,120.434
3515,81,NULL,12017,HGL,Helgoland Airport,+01:00,54.1853,7.91583
3516,216,NULL,12018,HGN,Mae Hong Son Airport,+07:00,19.3017,97.975
3518,231,21,12020,HGR,Hagerstown Airport,-04:00,39.7081,-77.7294
3520,171,NULL,12022,HGU,Mount Hagen Airport,+10:00,-5.82667,144.296
3523,231,41,12025,HHH,Hilton Head Island Airport,-04:00,32.2167,-80.7
3526,231,5,12028,HHR,Hawthorne Airport,-08:00,33.9167,-118.35
3527,76,NULL,12029,HHZ,Hikueru Airport,-10:00,-17.5333,-142.533
3528,231,24,12030,HIB,Hibbing/Chisholm Airport,-06:00,47.3867,-92.8389
3529,14,53,12031,HID,Horn Island Airport,+10:00,-10.5864,142.29
3534,69,NULL,12037,HIL,Shillavo Airport,+03:00,6.08333,44.8
3535,205,NULL,12038,HIM,Hingurakgoda Airport,+06:00,8.05,80.9711
3536,117,NULL,12039,HIN,Jinju Airport,+09:00,35.0886,128.07
3539,200,NULL,12042,HIR,Honiara Airport,+11:00,-9.42944,160.051
3540,171,NULL,12043,HIT,Hivaro Airport,+10:00,-6.93333,143.067
3542,45,NULL,12045,HJJ,Huaihua Zhijiang Airport,+08:00,27.1106,109.038
3543,101,NULL,12046,HJR,Khajuraho Airport,+05:30,24.8172,79.9186
3545,231,1,12048,HKB,Healy Lake Airport,-08:00,63.8667,-148.967
3546,110,NULL,12049,HKD,Hakodate Airport,+09:00,41.77,140.822
3547,158,NULL,12051,HKK,Hokitika Airport,+13:00,-42.7114,170.984
3548,171,NULL,12052,HKN,Hoskins Airport,+10:00,-5.46222,150.405
3549,216,NULL,12053,HKT,Phuket Airport,+07:00,8.11056,98.3125
3552,202,NULL,12578,HLA,Johannesburg Lanseria International Airport,+02:00,-25.9386,27.9261
3555,45,NULL,12059,HLD,Hailar Airport,+08:00,49.205,119.825
3558,45,NULL,12062,HLH,Ulanhot Airport,+08:00,46.1947,122.008
3562,231,27,12066,HLN,Helena Airport,-06:00,46.6069,-111.983
3569,158,NULL,12073,HLZ,Hamilton Airport,+13:00,-37.8667,175.332
